{"binned":false,"locations":[],"progress":{"errors":[],"started":"2017-10-13T20:07:54.461Z","completed":"2017-10-13T20:08:06.391Z"},"public":false,"published":false,"private":false,"status":"READY","subtrees":[{"_id":"59e11d26be5f8b00011b0a6a","totalPublic":118,"totalCollection":1,"name":"90370_Ty2","collectionIds":["NzQwN2ZhZTctZTk2Mi00Yj"]}],"uuid":"aadv50ii5hvc","title":"","size":1,"pmid":"","organismId":"90370","description":"","_session":"zz9cLOSMKpex2rsMzSw8YFgIOKqHsXYF","createdAt":"2017-10-13T20:07:54.463Z","lastAccessedAt":"2017-10-13T20:07:54.463Z","lastUpdatedAt":"2017-10-13T20:08:06.395Z","id":"59e11d1a97ad4b00013f158a","owner":"other","slug":"aadv50ii5hvc","organism":{"references":[{"date":{"year":2010,"month":null,"day":null},"position":{"latitude":12.565679,"longitude":104.990963},"analysis":{"core":{"matches":[],"size":3916,"percentMatched":100,"percentAssemblyMatched":75.2},"genotyphi":{"genotype":"4.3.1","snps":3,"foundLoci":68},"mlst":{"alleles":[],"matches":[],"st":"1","code":"1_1_1_1_1_1_5"},"paarsnp":{"matches":[],"antibiotics":{"SIL":{"mechanisms":[],"state":"UNKNOWN","name":"SIL"},"AZM":{"mechanisms":[],"state":"UNKNOWN","name":"AZM"},"TCY":{"mechanisms":[],"state":"UNKNOWN","name":"TCY"},"SXT":{"mechanisms":[],"state":"UNKNOWN","name":"SXT"},"TMP":{"mechanisms":[],"state":"UNKNOWN","name":"TMP"},"SMX":{"mechanisms":[],"state":"UNKNOWN","name":"SMX"},"NAL":{"mechanisms":["gyrA_S83F"],"state":"RESISTANT","name":"NAL"},"CIP":{"mechanisms":["gyrA_S83F"],"state":"RESISTANT","name":"CIP"},"CHL":{"mechanisms":[],"state":"UNKNOWN","name":"CHL"},"CEP":{"mechanisms":[],"state":"UNKNOWN","name":"CEP"},"AMP":{"mechanisms":[],"state":"UNKNOWN","name":"AMP"}},"paar":[],"snp":["gyrA_S83F"]}},"uuid":"90370_007898","_collection":"5980876c69994e0017ee0f7f","fileId":"eeba2753c6e66d221a0cea323fdfa31ccdb13214","name":"007898_ST1","country":"kh","pmid":"25961941","userDefined":{"country":"Cambodia","accuracy":"1","strain":"007898","source":"Blood","accession":"ERR319432","study accession":"ERP001718","sanger lane":"9870_8#31"},"metrics":{"assemblyN50Data":{"sequenceLength":4793925,"sum":4793925,"sequenceNumber":1},"sumsOfNucleotidesInDnaStrings":[4793925],"gcContent":52.1,"biggestNumberOfNucleotidesInDnaStrings":4793925,"smallestNumberOfNucleotidesInDnaStrings":4793925,"averageNumberOfNucleotidesInDnaStrings":4793925,"totalNumberOfNsInDnaStrings":0,"totalNumberOfNucleotidesInDnaStrings":4793925,"contigN50":4793925,"totalNumberOfContigs":1},"id":"5980876c69994e0017ee0f80"},{"date":{"year":2011,"month":null,"day":null},"position":{"latitude":23.634501,"longitude":-102.552784},"analysis":{"core":{"matches":[],"size":3929,"percentMatched":100,"percentAssemblyMatched":75.1},"genotyphi":{"genotype":"2.0.2","snps":2,"foundLoci":69},"mlst":{"alleles":[],"matches":[],"st":"2","code":"1_1_2_1_1_1_5"},"paarsnp":{"matches":[],"antibiotics":{"SIL":{"mechanisms":[],"state":"UNKNOWN","name":"SIL"},"AZM":{"mechanisms":[],"state":"UNKNOWN","name":"AZM"},"TCY":{"mechanisms":[],"state":"UNKNOWN","name":"TCY"},"SXT":{"mechanisms":[],"state":"UNKNOWN","name":"SXT"},"TMP":{"mechanisms":[],"state":"UNKNOWN","name":"TMP"},"SMX":{"mechanisms":[],"state":"UNKNOWN","name":"SMX"},"NAL":{"mechanisms":["parC_E84G","gyrA_S83F"],"state":"RESISTANT","name":"NAL"},"CIP":{"mechanisms":["parC_E84G","gyrA_S83F"],"state":"RESISTANT","name":"CIP"},"CHL":{"mechanisms":[],"state":"UNKNOWN","name":"CHL"},"CEP":{"mechanisms":[],"state":"UNKNOWN","name":"CEP"},"AMP":{"mechanisms":[],"state":"UNKNOWN","name":"AMP"}},"paar":[],"snp":["parC_E84G","gyrA_S83F"]}},"uuid":"90370_11909_3","_collection":"5980876c69994e0017ee0f7f","fileId":"51430b4ccefa982754b45cb642c7ca9ac1defa35","name":"11909_3_ST2","country":"mx","pmid":"25961941","userDefined":{"country":"Mexico","accuracy":"1","strain":"11909_3","source":"Stool","accession":"ERR343321","study accession":"ERP001718","sanger lane":"10349_1#73"},"metrics":{"assemblyN50Data":{"sequenceLength":4753305,"sum":4753305,"sequenceNumber":1},"sumsOfNucleotidesInDnaStrings":[4753305,4780011,4801058,4811824],"gcContent":52,"biggestNumberOfNucleotidesInDnaStrings":4753305,"smallestNumberOfNucleotidesInDnaStrings":10766,"averageNumberOfNucleotidesInDnaStrings":1202956,"totalNumberOfNsInDnaStrings":0,"totalNumberOfNucleotidesInDnaStrings":4811824,"contigN50":4753305,"totalNumberOfContigs":4},"id":"5980876c69994e0017ee0f81"},{"date":{"year":1983,"month":null,"day":null},"position":{"latitude":-0.789275,"longitude":113.921327},"analysis":{"core":{"matches":[],"size":3917,"percentMatched":100,"percentAssemblyMatched":73.7},"genotyphi":{"genotype":"3.1.2","snps":4,"foundLoci":68},"mlst":{"alleles":[],"matches":[],"st":"2","code":"1_1_2_1_1_1_5"},"paarsnp":{"matches":[],"antibiotics":{"SIL":{"mechanisms":["tetR(B)"],"state":"RESISTANT","name":"SIL"},"AZM":{"mechanisms":[],"state":"UNKNOWN","name":"AZM"},"TCY":{"mechanisms":["tetA(B)"],"state":"RESISTANT","name":"TCY"},"SXT":{"mechanisms":[],"state":"UNKNOWN","name":"SXT"},"TMP":{"mechanisms":[],"state":"UNKNOWN","name":"TMP"},"SMX":{"mechanisms":[],"state":"UNKNOWN","name":"SMX"},"NAL":{"mechanisms":[],"state":"UNKNOWN","name":"NAL"},"CIP":{"mechanisms":[],"state":"UNKNOWN","name":"CIP"},"CHL":{"mechanisms":[],"state":"UNKNOWN","name":"CHL"},"CEP":{"mechanisms":[],"state":"UNKNOWN","name":"CEP"},"AMP":{"mechanisms":[],"state":"UNKNOWN","name":"AMP"}},"paar":["tetR(B)","tetA(B)"],"snp":[]}},"uuid":"90370_404Ty","_collection":"5980876c69994e0017ee0f7f","fileId":"ba36e84dac8060e7deb4db709f6486a7747ed9cf","name":"404Ty_ST2","country":"id","pmid":"25961941","userDefined":{"country":"Indonesia","accuracy":"1","strain":"404Ty","source":"Unknown","accession":"ERR343338","study accession":"ERP001718","sanger lane":"10349_1#90"},"metrics":{"assemblyN50Data":{"sequenceLength":4807711,"sum":4807711,"sequenceNumber":1},"sumsOfNucleotidesInDnaStrings":[4807711,4834426,4855938,4870654,4881265,4890679],"gcContent":52,"biggestNumberOfNucleotidesInDnaStrings":4807711,"smallestNumberOfNucleotidesInDnaStrings":9414,"averageNumberOfNucleotidesInDnaStrings":815113,"totalNumberOfNsInDnaStrings":0,"totalNumberOfNucleotidesInDnaStrings":4890679,"contigN50":4807711,"totalNumberOfContigs":6},"id":"5980876c69994e0017ee0f82"},{"date":{"year":1976,"month":null,"day":null},"position":{"latitude":-4.038333,"longitude":21.758664},"analysis":{"core":{"matches":[],"size":3923,"percentMatched":100,"percentAssemblyMatched":73.2},"genotyphi":{"genotype":"1.1.3","snps":3,"foundLoci":68},"mlst":{"alleles":[],"matches":[],"st":"8","code":"1_1_2_3_1_1_5"},"paarsnp":{"matches":[],"antibiotics":{"SIL":{"mechanisms":["tetR(A)"],"state":"RESISTANT","name":"SIL"},"AZM":{"mechanisms":[],"state":"UNKNOWN","name":"AZM"},"TCY":{"mechanisms":["tetA(A)"],"state":"RESISTANT","name":"TCY"},"SXT":{"mechanisms":[],"state":"UNKNOWN","name":"SXT"},"TMP":{"mechanisms":[],"state":"UNKNOWN","name":"TMP"},"SMX":{"mechanisms":["sul1"],"state":"RESISTANT","name":"SMX"},"NAL":{"mechanisms":[],"state":"UNKNOWN","name":"NAL"},"CIP":{"mechanisms":[],"state":"UNKNOWN","name":"CIP"},"CHL":{"mechanisms":["catA1"],"state":"RESISTANT","name":"CHL"},"CEP":{"mechanisms":[],"state":"UNKNOWN","name":"CEP"},"AMP":{"mechanisms":["OXA-1"],"state":"RESISTANT","name":"AMP"}},"paar":["sul1","tetR(A)","catA1","OXA-1","tetA(A)"],"snp":[]}},"uuid":"90370_76-1292","_collection":"5980876c69994e0017ee0f7f","fileId":"91ff718f6e28125c135e171a7478ee0c85a653c9","name":"76_1292_ST8","country":"cd","pmid":"25961941","userDefined":{"country":"Democratic Republic of Congo","accuracy":"1","strain":"76_1292","source":"Blood","accession":"ERR360511","study accession":"ERP001718","sanger lane":"10592_2#63"},"metrics":{"assemblyN50Data":{"sequenceLength":4780549,"sum":4780549,"sequenceNumber":1},"sumsOfNucleotidesInDnaStrings":[4780549,4925937,4934685],"gcContent":52.1,"biggestNumberOfNucleotidesInDnaStrings":4780549,"smallestNumberOfNucleotidesInDnaStrings":8748,"averageNumberOfNucleotidesInDnaStrings":1644895,"totalNumberOfNsInDnaStrings":0,"totalNumberOfNucleotidesInDnaStrings":4934685,"contigN50":4780549,"totalNumberOfContigs":3},"id":"5980876c69994e0017ee0f83"},{"date":{"year":1993,"month":null,"day":null},"position":{"latitude":14.058324,"longitude":108.277199},"analysis":{"core":{"matches":[],"size":3916,"percentMatched":100,"percentAssemblyMatched":70.2},"genotyphi":{"genotype":"3.2.1","snps":2,"foundLoci":68},"mlst":{"alleles":[],"matches":[],"st":"2","code":"1_1_2_1_1_1_5"},"paarsnp":{"matches":[],"antibiotics":{"SIL":{"mechanisms":["tetR(B)"],"state":"RESISTANT","name":"SIL"},"AZM":{"mechanisms":[],"state":"UNKNOWN","name":"AZM"},"TCY":{"mechanisms":["tetA(B)"],"state":"RESISTANT","name":"TCY"},"SXT":{"mechanisms":["sul2-dfrA14"],"state":"RESISTANT","name":"SXT"},"TMP":{"mechanisms":["dfrA14"],"state":"RESISTANT","name":"TMP"},"SMX":{"mechanisms":["sul2"],"state":"RESISTANT","name":"SMX"},"NAL":{"mechanisms":[],"state":"UNKNOWN","name":"NAL"},"CIP":{"mechanisms":[],"state":"UNKNOWN","name":"CIP"},"CHL":{"mechanisms":["catA1"],"state":"RESISTANT","name":"CHL"},"CEP":{"mechanisms":[],"state":"UNKNOWN","name":"CEP"},"AMP":{"mechanisms":["TEM-1"],"state":"RESISTANT","name":"AMP"}},"paar":["TEM-1","dfrA14","tetR(B)","catA1","tetA(B)","sul2"],"snp":[]}},"uuid":"90370_CT18","_collection":"5980876c69994e0017ee0f7f","fileId":"08da058907f7a2c26f10ef0e1c5ef65a2f21c6f0","name":"CT18_ST2","country":"vn","pmid":"11677608","userDefined":{"country":"Vietnam","accuracy":"1","strain":"CT18","source":"Blood","accession":"AL513382.1","study accession":"PRJNA236","sanger lane":"28050_A01"},"metrics":{"assemblyN50Data":{"sequenceLength":4809037,"sum":4809037,"sequenceNumber":1},"sumsOfNucleotidesInDnaStrings":[4809037,5027197,5133713],"gcContent":51.9,"biggestNumberOfNucleotidesInDnaStrings":4809037,"smallestNumberOfNucleotidesInDnaStrings":106516,"averageNumberOfNucleotidesInDnaStrings":1711237,"totalNumberOfNsInDnaStrings":0,"totalNumberOfNucleotidesInDnaStrings":5133713,"contigN50":4809037,"totalNumberOfContigs":3},"id":"5980876c69994e0017ee0f84"},{"date":{"year":2009,"month":null,"day":null},"position":{"latitude":-13.254308,"longitude":34.301525},"analysis":{"core":{"matches":[],"size":3916,"percentMatched":100,"percentAssemblyMatched":76.6},"genotyphi":{"genotype":"2.4.1","snps":3,"foundLoci":68},"mlst":{"alleles":[],"matches":[],"st":"2","code":"1_1_2_1_1_1_5"},"paarsnp":{"matches":[],"antibiotics":{"SIL":{"mechanisms":[],"state":"UNKNOWN","name":"SIL"},"AZM":{"mechanisms":[],"state":"UNKNOWN","name":"AZM"},"TCY":{"mechanisms":[],"state":"UNKNOWN","name":"TCY"},"SXT":{"mechanisms":[],"state":"UNKNOWN","name":"SXT"},"TMP":{"mechanisms":[],"state":"UNKNOWN","name":"TMP"},"SMX":{"mechanisms":[],"state":"UNKNOWN","name":"SMX"},"NAL":{"mechanisms":[],"state":"UNKNOWN","name":"NAL"},"CIP":{"mechanisms":[],"state":"UNKNOWN","name":"CIP"},"CHL":{"mechanisms":[],"state":"UNKNOWN","name":"CHL"},"CEP":{"mechanisms":[],"state":"UNKNOWN","name":"CEP"},"AMP":{"mechanisms":[],"state":"UNKNOWN","name":"AMP"}},"paar":[],"snp":[]}},"uuid":"90370_D50739","_collection":"5980876c69994e0017ee0f7f","fileId":"64202fbdc1ced9babcda73e55374a293e1b40ac4","name":"D50739_ST2","country":"mw","pmid":"25961941","userDefined":{"country":"Malawi","accuracy":"1","strain":"D50739","source":"Blood","accession":"ERR279161","study accession":"ERP001718","sanger lane":"9475_6#64"},"metrics":{"assemblyN50Data":{"sequenceLength":206289,"sum":2407470,"sequenceNumber":8},"sumsOfNucleotidesInDnaStrings":[518138,984514,1240828,1491161,1740688,1983325,2201181,2407470,2611821,2774852,2928607,3080093,3229441,3376763,3521582,3666323,3801773,3919358,4017344,4110168,4175242,4238367,4299049,4355477,4399349,4442740,4485620,4524721,4557850,4588739,4615046,4637433,4657655,4670038,4678629,4685777,4692445,4695589,4698290,4700079,4701539,4702662,4703197,4703723,4704071],"gcContent":52.1,"biggestNumberOfNucleotidesInDnaStrings":518138,"smallestNumberOfNucleotidesInDnaStrings":348,"averageNumberOfNucleotidesInDnaStrings":104534,"totalNumberOfNsInDnaStrings":24,"totalNumberOfNucleotidesInDnaStrings":4704071,"contigN50":206289,"totalNumberOfContigs":45},"id":"5980876c69994e0017ee0f85"},{"date":{"year":2000,"month":null,"day":null},"position":{"latitude":31.791702,"longitude":-7.09262},"analysis":{"core":{"matches":[],"size":3917,"percentMatched":100,"percentAssemblyMatched":74.6},"genotyphi":{"genotype":"0.1","snps":3,"foundLoci":68},"mlst":{"alleles":[],"matches":[],"st":"2","code":"1_1_2_1_1_1_5"},"paarsnp":{"matches":[],"antibiotics":{"SIL":{"mechanisms":[],"state":"UNKNOWN","name":"SIL"},"AZM":{"mechanisms":[],"state":"UNKNOWN","name":"AZM"},"TCY":{"mechanisms":[],"state":"UNKNOWN","name":"TCY"},"SXT":{"mechanisms":[],"state":"UNKNOWN","name":"SXT"},"TMP":{"mechanisms":[],"state":"UNKNOWN","name":"TMP"},"SMX":{"mechanisms":[],"state":"UNKNOWN","name":"SMX"},"NAL":{"mechanisms":[],"state":"UNKNOWN","name":"NAL"},"CIP":{"mechanisms":[],"state":"UNKNOWN","name":"CIP"},"CHL":{"mechanisms":[],"state":"UNKNOWN","name":"CHL"},"CEP":{"mechanisms":[],"state":"UNKNOWN","name":"CEP"},"AMP":{"mechanisms":[],"state":"UNKNOWN","name":"AMP"}},"paar":[],"snp":[]}},"uuid":"90370_E00-7866","_collection":"5980876c69994e0017ee0f7f","fileId":"78bf32dc58c0ac81672d16a04f33ba9b0734819d","name":"E00-7866_ST2","country":"ma","pmid":"25961941","userDefined":{"country":"Morocco","accuracy":"1","strain":"E00-7866","source":"Blood","accession":"ERR343336","study accession":"ERP001718","sanger lane":"10349_1#88"},"metrics":{"assemblyN50Data":{"sequenceLength":4797408,"sum":4797408,"sequenceNumber":1},"sumsOfNucleotidesInDnaStrings":[4797408,4820207,4831122],"gcContent":52.1,"biggestNumberOfNucleotidesInDnaStrings":4797408,"smallestNumberOfNucleotidesInDnaStrings":10915,"averageNumberOfNucleotidesInDnaStrings":1610374,"totalNumberOfNsInDnaStrings":0,"totalNumberOfNucleotidesInDnaStrings":4831122,"contigN50":4797408,"totalNumberOfContigs":3},"id":"5980876c69994e0017ee0f86"},{"date":{"year":2002,"month":null,"day":null},"position":{"latitude":20.593684,"longitude":78.96288},"analysis":{"core":{"matches":[],"size":3922,"percentMatched":100,"percentAssemblyMatched":74.6},"genotyphi":{"genotype":"0.0.3","snps":3,"foundLoci":68},"mlst":{"alleles":[],"matches":[],"st":"2","code":"1_1_2_1_1_1_5"},"paarsnp":{"matches":[],"antibiotics":{"SIL":{"mechanisms":[],"state":"UNKNOWN","name":"SIL"},"AZM":{"mechanisms":[],"state":"UNKNOWN","name":"AZM"},"TCY":{"mechanisms":[],"state":"UNKNOWN","name":"TCY"},"SXT":{"mechanisms":[],"state":"UNKNOWN","name":"SXT"},"TMP":{"mechanisms":[],"state":"UNKNOWN","name":"TMP"},"SMX":{"mechanisms":[],"state":"UNKNOWN","name":"SMX"},"NAL":{"mechanisms":["gyrA_D87G"],"state":"RESISTANT","name":"NAL"},"CIP":{"mechanisms":["gyrA_D87G"],"state":"RESISTANT","name":"CIP"},"CHL":{"mechanisms":[],"state":"UNKNOWN","name":"CHL"},"CEP":{"mechanisms":[],"state":"UNKNOWN","name":"CEP"},"AMP":{"mechanisms":[],"state":"UNKNOWN","name":"AMP"}},"paar":[],"snp":["gyrA_D87G"]}},"uuid":"90370_E02-1180","_collection":"5980876c69994e0017ee0f7f","fileId":"1f5410df192db291c75bfac4d1d080115e8d3fe8","name":"E02-1180_ST2","country":"in","pmid":"25961941","userDefined":{"country":"India","accuracy":"1","strain":"E02-1180","source":"Blood","accession":"ERR343337","study accession":"ERP001718","sanger lane":"10349_1#89"},"metrics":{"assemblyN50Data":{"sequenceLength":4793071,"sum":4793071,"sequenceNumber":1},"sumsOfNucleotidesInDnaStrings":[4793071,4811380,4828435,4838914],"gcContent":52.1,"biggestNumberOfNucleotidesInDnaStrings":4793071,"smallestNumberOfNucleotidesInDnaStrings":10479,"averageNumberOfNucleotidesInDnaStrings":1209728,"totalNumberOfNsInDnaStrings":0,"totalNumberOfNucleotidesInDnaStrings":4838914,"contigN50":4793071,"totalNumberOfContigs":4},"id":"5980876c69994e0017ee0f87"},{"date":{"year":1998,"month":null,"day":null},"position":{"latitude":-0.023559,"longitude":37.906193},"analysis":{"core":{"matches":[],"size":3917,"percentMatched":100,"percentAssemblyMatched":75.7},"genotyphi":{"genotype":"2.5","snps":2,"foundLoci":68},"mlst":{"alleles":[],"matches":[],"st":"2","code":"1_1_2_1_1_1_5"},"paarsnp":{"matches":[],"antibiotics":{"SIL":{"mechanisms":[],"state":"UNKNOWN","name":"SIL"},"AZM":{"mechanisms":[],"state":"UNKNOWN","name":"AZM"},"TCY":{"mechanisms":[],"state":"UNKNOWN","name":"TCY"},"SXT":{"mechanisms":[],"state":"UNKNOWN","name":"SXT"},"TMP":{"mechanisms":[],"state":"UNKNOWN","name":"TMP"},"SMX":{"mechanisms":[],"state":"UNKNOWN","name":"SMX"},"NAL":{"mechanisms":[],"state":"UNKNOWN","name":"NAL"},"CIP":{"mechanisms":[],"state":"UNKNOWN","name":"CIP"},"CHL":{"mechanisms":[],"state":"UNKNOWN","name":"CHL"},"CEP":{"mechanisms":[],"state":"UNKNOWN","name":"CEP"},"AMP":{"mechanisms":[],"state":"UNKNOWN","name":"AMP"}},"paar":[],"snp":[]}},"uuid":"90370_E98-0664_66","_collection":"5980876c69994e0017ee0f7f","fileId":"c74aeb37a351f1d19afb8c61d0e64d82dde59e25","name":"E98-0664_66_ST2","country":"ke","pmid":"25961941","userDefined":{"country":"Kenya","accuracy":"1","strain":"E98-0664","source":"Unknown","accession":"ERR343334","study accession":"ERP001718","sanger lane":"10349_1#86"},"metrics":{"assemblyN50Data":{"sequenceLength":4752533,"sum":4752533,"sequenceNumber":1},"sumsOfNucleotidesInDnaStrings":[4752533,4761421,4764488],"gcContent":52.1,"biggestNumberOfNucleotidesInDnaStrings":4752533,"smallestNumberOfNucleotidesInDnaStrings":3067,"averageNumberOfNucleotidesInDnaStrings":1588162,"totalNumberOfNsInDnaStrings":0,"totalNumberOfNucleotidesInDnaStrings":4764488,"contigN50":4752533,"totalNumberOfContigs":3},"id":"5980876c69994e0017ee0f88"},{"date":{"year":2002,"month":null,"day":null},"position":{"latitude":-0.789275,"longitude":113.921327},"analysis":{"core":{"matches":[],"size":3919,"percentMatched":100,"percentAssemblyMatched":74.9},"genotyphi":{"genotype":"2.1.2","snps":3,"foundLoci":68},"mlst":{"alleles":[],"matches":[],"st":"2138","code":"1_465_2_1_1_1_5"},"paarsnp":{"matches":[],"antibiotics":{"SIL":{"mechanisms":[],"state":"UNKNOWN","name":"SIL"},"AZM":{"mechanisms":[],"state":"UNKNOWN","name":"AZM"},"TCY":{"mechanisms":[],"state":"UNKNOWN","name":"TCY"},"SXT":{"mechanisms":[],"state":"UNKNOWN","name":"SXT"},"TMP":{"mechanisms":[],"state":"UNKNOWN","name":"TMP"},"SMX":{"mechanisms":[],"state":"UNKNOWN","name":"SMX"},"NAL":{"mechanisms":[],"state":"UNKNOWN","name":"NAL"},"CIP":{"mechanisms":[],"state":"UNKNOWN","name":"CIP"},"CHL":{"mechanisms":[],"state":"UNKNOWN","name":"CHL"},"CEP":{"mechanisms":[],"state":"UNKNOWN","name":"CEP"},"AMP":{"mechanisms":[],"state":"UNKNOWN","name":"AMP"}},"paar":[],"snp":[]}},"uuid":"90370_ERL024120","_collection":"5980876c69994e0017ee0f7f","fileId":"353f487cb88ddd840aaf8ef0166826633e742b0e","name":"ERL024120_ST2138","country":"id","pmid":"25961941","userDefined":{"country":"Indonesia","accuracy":"1","strain":"ERL024120","source":"Stool","accession":"ERR343252","study accession":"ERP001718","sanger lane":"10349_1#4"},"metrics":{"assemblyN50Data":{"sequenceLength":4811886,"sum":4811886,"sequenceNumber":1},"sumsOfNucleotidesInDnaStrings":[4811886],"gcContent":52.1,"biggestNumberOfNucleotidesInDnaStrings":4811886,"smallestNumberOfNucleotidesInDnaStrings":4811886,"averageNumberOfNucleotidesInDnaStrings":4811886,"totalNumberOfNsInDnaStrings":0,"totalNumberOfNucleotidesInDnaStrings":4811886,"contigN50":4811886,"totalNumberOfContigs":1},"id":"5980876c69994e0017ee0f89"},{"date":{"year":2004,"month":null,"day":null},"position":{"latitude":20.593684,"longitude":78.96288},"analysis":{"core":{"matches":[],"size":3926,"percentMatched":100,"percentAssemblyMatched":73.9},"genotyphi":{"genotype":"3.3","snps":3,"foundLoci":68},"mlst":{"alleles":[],"matches":[],"st":"2","code":"1_1_2_1_1_1_5"},"paarsnp":{"matches":[],"antibiotics":{"SIL":{"mechanisms":["parE_A364V"],"state":"RESISTANT","name":"SIL"},"AZM":{"mechanisms":[],"state":"UNKNOWN","name":"AZM"},"TCY":{"mechanisms":[],"state":"UNKNOWN","name":"TCY"},"SXT":{"mechanisms":[],"state":"UNKNOWN","name":"SXT"},"TMP":{"mechanisms":[],"state":"UNKNOWN","name":"TMP"},"SMX":{"mechanisms":[],"state":"UNKNOWN","name":"SMX"},"NAL":{"mechanisms":[],"state":"UNKNOWN","name":"NAL"},"CIP":{"mechanisms":[],"state":"UNKNOWN","name":"CIP"},"CHL":{"mechanisms":[],"state":"UNKNOWN","name":"CHL"},"CEP":{"mechanisms":[],"state":"UNKNOWN","name":"CEP"},"AMP":{"mechanisms":[],"state":"UNKNOWN","name":"AMP"}},"paar":[],"snp":["parE_A364V"]}},"uuid":"90370_ERL041834","_collection":"5980876c69994e0017ee0f7f","fileId":"206a179d9ba60b99bea5735ea486d2b3706bd634","name":"ERL041834_ST2","country":"in","pmid":"25961941","userDefined":{"country":"India","accuracy":"1","strain":"ERL041834","source":"Stool","accession":"ERR343264","study accession":"ERP001718","sanger lane":"10349_1#16"},"metrics":{"assemblyN50Data":{"sequenceLength":4675147,"sum":4675147,"sequenceNumber":1},"sumsOfNucleotidesInDnaStrings":[4675147,4832212,4853812,4873450,4892436],"gcContent":52.1,"biggestNumberOfNucleotidesInDnaStrings":4675147,"smallestNumberOfNucleotidesInDnaStrings":18986,"averageNumberOfNucleotidesInDnaStrings":978487,"totalNumberOfNsInDnaStrings":0,"totalNumberOfNucleotidesInDnaStrings":4892436,"contigN50":4675147,"totalNumberOfContigs":5},"id":"5980876c69994e0017ee0f8a"},{"date":{"year":2007,"month":null,"day":null},"position":{"latitude":-17.713371,"longitude":178.065032},"analysis":{"core":{"matches":[],"size":3920,"percentMatched":100,"percentAssemblyMatched":75},"genotyphi":{"genotype":"4.2.2","snps":4,"foundLoci":68},"mlst":{"alleles":[],"matches":[],"st":"1","code":"1_1_1_1_1_1_5"},"paarsnp":{"matches":[],"antibiotics":{"SIL":{"mechanisms":[],"state":"UNKNOWN","name":"SIL"},"AZM":{"mechanisms":[],"state":"UNKNOWN","name":"AZM"},"TCY":{"mechanisms":[],"state":"UNKNOWN","name":"TCY"},"SXT":{"mechanisms":[],"state":"UNKNOWN","name":"SXT"},"TMP":{"mechanisms":[],"state":"UNKNOWN","name":"TMP"},"SMX":{"mechanisms":[],"state":"UNKNOWN","name":"SMX"},"NAL":{"mechanisms":[],"state":"UNKNOWN","name":"NAL"},"CIP":{"mechanisms":[],"state":"UNKNOWN","name":"CIP"},"CHL":{"mechanisms":[],"state":"UNKNOWN","name":"CHL"},"CEP":{"mechanisms":[],"state":"UNKNOWN","name":"CEP"},"AMP":{"mechanisms":[],"state":"UNKNOWN","name":"AMP"}},"paar":[],"snp":[]}},"uuid":"90370_ERL072973","_collection":"5980876c69994e0017ee0f7f","fileId":"495c1b08ca435925f3d31711835ad1c67f1a137d","name":"ERL072973_ST1","country":"fj","pmid":"25961941","userDefined":{"country":"Fiji","accuracy":"1","strain":"ERL072973","source":"Blood","accession":"ERR343279","study accession":"ERP001718","sanger lane":"10349_1#31"},"metrics":{"assemblyN50Data":{"sequenceLength":4789877,"sum":4789877,"sequenceNumber":1},"sumsOfNucleotidesInDnaStrings":[4789877,4806043],"gcContent":52.1,"biggestNumberOfNucleotidesInDnaStrings":4789877,"smallestNumberOfNucleotidesInDnaStrings":16166,"averageNumberOfNucleotidesInDnaStrings":2403021,"totalNumberOfNsInDnaStrings":0,"totalNumberOfNucleotidesInDnaStrings":4806043,"contigN50":4789877,"totalNumberOfContigs":2},"id":"5980876c69994e0017ee0f8b"},{"date":{"year":2012,"month":null,"day":null},"position":{"latitude":-13.759029,"longitude":-172.104629},"analysis":{"core":{"matches":[],"size":3918,"percentMatched":100,"percentAssemblyMatched":75},"genotyphi":{"genotype":"3.5.4","snps":4,"foundLoci":68},"mlst":{"alleles":[],"matches":[],"st":"1","code":"1_1_1_1_1_1_5"},"paarsnp":{"matches":[],"antibiotics":{"SIL":{"mechanisms":[],"state":"UNKNOWN","name":"SIL"},"AZM":{"mechanisms":[],"state":"UNKNOWN","name":"AZM"},"TCY":{"mechanisms":[],"state":"UNKNOWN","name":"TCY"},"SXT":{"mechanisms":[],"state":"UNKNOWN","name":"SXT"},"TMP":{"mechanisms":[],"state":"UNKNOWN","name":"TMP"},"SMX":{"mechanisms":[],"state":"UNKNOWN","name":"SMX"},"NAL":{"mechanisms":[],"state":"UNKNOWN","name":"NAL"},"CIP":{"mechanisms":[],"state":"UNKNOWN","name":"CIP"},"CHL":{"mechanisms":[],"state":"UNKNOWN","name":"CHL"},"CEP":{"mechanisms":[],"state":"UNKNOWN","name":"CEP"},"AMP":{"mechanisms":[],"state":"UNKNOWN","name":"AMP"}},"paar":[],"snp":[]}},"uuid":"90370_H12ESR00394-001A","_collection":"5980876c69994e0017ee0f7f","fileId":"628de425d7ccb1c3fb0968a473e6f38f271b8f9e","name":"H12ESR00394-001A_ST1","country":"ws","pmid":"25961941","userDefined":{"country":"Samoa","accuracy":"1","strain":"H12ESR00394-001A","source":"Blood","accession":"ERR357605","study accession":"ERP001718","sanger lane":"10561_2#30"},"metrics":{"assemblyN50Data":{"sequenceLength":4808147,"sum":4808147,"sequenceNumber":1},"sumsOfNucleotidesInDnaStrings":[4808147],"gcContent":52.1,"biggestNumberOfNucleotidesInDnaStrings":4808147,"smallestNumberOfNucleotidesInDnaStrings":4808147,"averageNumberOfNucleotidesInDnaStrings":4808147,"totalNumberOfNsInDnaStrings":0,"totalNumberOfNucleotidesInDnaStrings":4808147,"contigN50":4808147,"totalNumberOfContigs":1},"id":"5980876c69994e0017ee0f8c"},{"date":{"year":2012,"month":null,"day":null},"position":{"latitude":12.879721,"longitude":121.774017},"analysis":{"core":{"matches":[],"size":3919,"percentMatched":100,"percentAssemblyMatched":74.9},"genotyphi":{"genotype":"3","snps":2,"foundLoci":68},"mlst":{"alleles":[],"matches":[],"st":"1","code":"1_1_1_1_1_1_5"},"paarsnp":{"matches":[],"antibiotics":{"SIL":{"mechanisms":[],"state":"UNKNOWN","name":"SIL"},"AZM":{"mechanisms":[],"state":"UNKNOWN","name":"AZM"},"TCY":{"mechanisms":[],"state":"UNKNOWN","name":"TCY"},"SXT":{"mechanisms":[],"state":"UNKNOWN","name":"SXT"},"TMP":{"mechanisms":[],"state":"UNKNOWN","name":"TMP"},"SMX":{"mechanisms":[],"state":"UNKNOWN","name":"SMX"},"NAL":{"mechanisms":[],"state":"UNKNOWN","name":"NAL"},"CIP":{"mechanisms":[],"state":"UNKNOWN","name":"CIP"},"CHL":{"mechanisms":[],"state":"UNKNOWN","name":"CHL"},"CEP":{"mechanisms":[],"state":"UNKNOWN","name":"CEP"},"AMP":{"mechanisms":[],"state":"UNKNOWN","name":"AMP"}},"paar":[],"snp":[]}},"uuid":"90370_H12ESR00755-001A","_collection":"5980876c69994e0017ee0f7f","fileId":"19a5c66fedc8532d11bdad445e04d7fc6d7e9a31","name":"H12ESR00755-001A_ST1","country":"ph","pmid":"25961941","userDefined":{"country":"Phillipines","accuracy":"1","strain":"H12ESR00755-001A","source":"Blood","accession":"ERR343328","study accession":"ERP001718","sanger lane":"10349_1#80"},"metrics":{"assemblyN50Data":{"sequenceLength":4802146,"sum":4802146,"sequenceNumber":1},"sumsOfNucleotidesInDnaStrings":[4802146,4814227],"gcContent":52.1,"biggestNumberOfNucleotidesInDnaStrings":4802146,"smallestNumberOfNucleotidesInDnaStrings":12081,"averageNumberOfNucleotidesInDnaStrings":2407113,"totalNumberOfNsInDnaStrings":0,"totalNumberOfNucleotidesInDnaStrings":4814227,"contigN50":4802146,"totalNumberOfContigs":2},"id":"5980876c69994e0017ee0f8d"},{"date":{"year":2001,"month":null,"day":null},"position":{"latitude":19.85627,"longitude":102.495496},"analysis":{"core":{"matches":[],"size":3916,"percentMatched":100,"percentAssemblyMatched":76},"genotyphi":{"genotype":"3.4","snps":3,"foundLoci":68},"mlst":{"alleles":[],"matches":[],"st":"1","code":"1_1_1_1_1_1_5"},"paarsnp":{"matches":[],"antibiotics":{"SIL":{"mechanisms":[],"state":"UNKNOWN","name":"SIL"},"AZM":{"mechanisms":[],"state":"UNKNOWN","name":"AZM"},"TCY":{"mechanisms":[],"state":"UNKNOWN","name":"TCY"},"SXT":{"mechanisms":[],"state":"UNKNOWN","name":"SXT"},"TMP":{"mechanisms":[],"state":"UNKNOWN","name":"TMP"},"SMX":{"mechanisms":[],"state":"UNKNOWN","name":"SMX"},"NAL":{"mechanisms":[],"state":"UNKNOWN","name":"NAL"},"CIP":{"mechanisms":[],"state":"UNKNOWN","name":"CIP"},"CHL":{"mechanisms":[],"state":"UNKNOWN","name":"CHL"},"CEP":{"mechanisms":[],"state":"UNKNOWN","name":"CEP"},"AMP":{"mechanisms":[],"state":"UNKNOWN","name":"AMP"}},"paar":[],"snp":[]}},"uuid":"90370_LNT1148","_collection":"5980876c69994e0017ee0f7f","fileId":"1700e1b91ebf7161df0de5eaf18bced0eca891a6","name":"LNT1148_ST1","country":"la","pmid":"25961941","userDefined":{"country":"Laos","accuracy":"1","strain":"LNT1148","source":"Blood","accession":"ERR340779","study accession":"ERP001718","sanger lane":"10209_5#23"},"metrics":{"assemblyN50Data":{"sequenceLength":204320,"sum":2419529,"sequenceNumber":9},"sumsOfNucleotidesInDnaStrings":[508778,806524,1069387,1319709,1569243,1791211,2008893,2215209,2419529,2605620,2777603,2940413,3096591,3250312,3399694,3544480,3688043,3801575,3899561,3991784,4072819,4153830,4218573,4281655,4342902,4401397,4457640,4503566,4547464,4580626,4612269,4643226,4669806,4692151,4704534,4713125,4720237,4726940,4731341,4735189,4738578,4741311,4742030,4742593,4743132,4743503],"gcContent":52.1,"biggestNumberOfNucleotidesInDnaStrings":508778,"smallestNumberOfNucleotidesInDnaStrings":371,"averageNumberOfNucleotidesInDnaStrings":103119,"totalNumberOfNsInDnaStrings":2,"totalNumberOfNucleotidesInDnaStrings":4743503,"contigN50":204320,"totalNumberOfContigs":46},"id":"5980876c69994e0017ee0f8e"},{"date":{"year":1939,"month":null,"day":null},"position":{"latitude":null,"longitude":null},"analysis":{"core":{"matches":[],"size":3915,"percentMatched":100,"percentAssemblyMatched":75.4},"genotyphi":{"genotype":"1.2.1","snps":3,"foundLoci":68},"mlst":{"alleles":[],"matches":[],"st":"2","code":"1_1_2_1_1_1_5"},"paarsnp":{"matches":[],"antibiotics":{"SIL":{"mechanisms":[],"state":"UNKNOWN","name":"SIL"},"AZM":{"mechanisms":[],"state":"UNKNOWN","name":"AZM"},"TCY":{"mechanisms":[],"state":"UNKNOWN","name":"TCY"},"SXT":{"mechanisms":[],"state":"UNKNOWN","name":"SXT"},"TMP":{"mechanisms":[],"state":"UNKNOWN","name":"TMP"},"SMX":{"mechanisms":[],"state":"UNKNOWN","name":"SMX"},"NAL":{"mechanisms":[],"state":"UNKNOWN","name":"NAL"},"CIP":{"mechanisms":[],"state":"UNKNOWN","name":"CIP"},"CHL":{"mechanisms":[],"state":"UNKNOWN","name":"CHL"},"CEP":{"mechanisms":[],"state":"UNKNOWN","name":"CEP"},"AMP":{"mechanisms":[],"state":"UNKNOWN","name":"AMP"}},"paar":[],"snp":[]}},"uuid":"90370_M326","_collection":"5980876c69994e0017ee0f7f","fileId":"05a02588ff9f79b552582bc9f7c14d626e35dbe5","name":"M326_ST2","country":null,"pmid":"26411565","userDefined":{"country":"Unknown","accuracy":"","strain":"Craigie F 1","source":"Unknown","accession":"ERS203153","study accession":"PRJEB3255","sanger lane":"9471_7#42"},"metrics":{"assemblyN50Data":{"sequenceLength":204340,"sum":2513576,"sequenceNumber":9},"sumsOfNucleotidesInDnaStrings":[466384,801637,1126875,1390459,1640658,1886135,2102934,2309236,2513576,2699405,2871643,3033883,3187455,3336830,3484416,3629186,3764726,3894537,3992523,4085104,4166002,4230757,4293839,4354521,4410763,4461285,4505175,4548040,4581196,4613139,4644096,4670418,4692763,4712996,4725379,4733970,4741082,4747762,4754061,4758768,4763267,4767223,4770357,4773090,4774826,4775208,4775555],"gcContent":52,"biggestNumberOfNucleotidesInDnaStrings":466384,"smallestNumberOfNucleotidesInDnaStrings":347,"averageNumberOfNucleotidesInDnaStrings":101607,"totalNumberOfNsInDnaStrings":8,"totalNumberOfNucleotidesInDnaStrings":4775555,"contigN50":204340,"totalNumberOfContigs":47},"id":"5980876c69994e0017ee0f8f"},{"date":{"year":2006,"month":null,"day":null},"position":{"latitude":-38.416097,"longitude":-63.616672},"analysis":{"core":{"matches":[],"size":3916,"percentMatched":100,"percentAssemblyMatched":76.4},"genotyphi":{"genotype":"2.3.3","snps":3,"foundLoci":68},"mlst":{"alleles":[],"matches":[],"st":"2","code":"1_1_2_1_1_1_5"},"paarsnp":{"matches":[],"antibiotics":{"SIL":{"mechanisms":[],"state":"UNKNOWN","name":"SIL"},"AZM":{"mechanisms":[],"state":"UNKNOWN","name":"AZM"},"TCY":{"mechanisms":[],"state":"UNKNOWN","name":"TCY"},"SXT":{"mechanisms":[],"state":"UNKNOWN","name":"SXT"},"TMP":{"mechanisms":[],"state":"UNKNOWN","name":"TMP"},"SMX":{"mechanisms":[],"state":"UNKNOWN","name":"SMX"},"NAL":{"mechanisms":[],"state":"UNKNOWN","name":"NAL"},"CIP":{"mechanisms":[],"state":"UNKNOWN","name":"CIP"},"CHL":{"mechanisms":[],"state":"UNKNOWN","name":"CHL"},"CEP":{"mechanisms":[],"state":"UNKNOWN","name":"CEP"},"AMP":{"mechanisms":[],"state":"UNKNOWN","name":"AMP"}},"paar":[],"snp":[]}},"uuid":"90370_ST1921-06","_collection":"5980876c69994e0017ee0f7f","fileId":"0f7e1308d0b3b6f3104a157a6c62227040138089","name":"ST1921-06_ST2","country":"ar","pmid":"25961941","userDefined":{"country":"Argentina","accuracy":"1","strain":"ST1921/06","source":"Stool","accession":"ERR353335","study accession":"ERP001718","sanger lane":"10541_1#64"},"metrics":{"assemblyN50Data":{"sequenceLength":204238,"sum":2560530,"sequenceNumber":9},"sumsOfNucleotidesInDnaStrings":[466411,859542,1190912,1443632,1693230,1932340,2150014,2356292,2560530,2745947,2917943,3080946,3234697,3384051,3531313,3676106,3811699,3929123,4027054,4119639,4206744,4269806,4330478,4386697,4430574,4473879,4507491,4540673,4571631,4601961,4628257,4650602,4670801,4683280,4691809,4699017,4705699,4710198,4714020,4716754,4717473,4718006],"gcContent":52.1,"biggestNumberOfNucleotidesInDnaStrings":466411,"smallestNumberOfNucleotidesInDnaStrings":533,"averageNumberOfNucleotidesInDnaStrings":112333,"totalNumberOfNsInDnaStrings":0,"totalNumberOfNucleotidesInDnaStrings":4718006,"contigN50":204238,"totalNumberOfContigs":42},"id":"5980876c69994e0017ee0f90"},{"date":{"year":1916,"month":null,"day":null},"position":{"latitude":61.52401,"longitude":105.318756},"analysis":{"core":{"matches":[],"size":3917,"percentMatched":100,"percentAssemblyMatched":75.2},"genotyphi":{"genotype":"4.1","snps":3,"foundLoci":68},"mlst":{"alleles":[],"matches":[],"st":"1","code":"1_1_1_1_1_1_5"},"paarsnp":{"matches":[],"antibiotics":{"SIL":{"mechanisms":[],"state":"UNKNOWN","name":"SIL"},"AZM":{"mechanisms":[],"state":"UNKNOWN","name":"AZM"},"TCY":{"mechanisms":[],"state":"UNKNOWN","name":"TCY"},"SXT":{"mechanisms":[],"state":"UNKNOWN","name":"SXT"},"TMP":{"mechanisms":[],"state":"UNKNOWN","name":"TMP"},"SMX":{"mechanisms":[],"state":"UNKNOWN","name":"SMX"},"NAL":{"mechanisms":[],"state":"UNKNOWN","name":"NAL"},"CIP":{"mechanisms":[],"state":"UNKNOWN","name":"CIP"},"CHL":{"mechanisms":[],"state":"UNKNOWN","name":"CHL"},"CEP":{"mechanisms":[],"state":"UNKNOWN","name":"CEP"},"AMP":{"mechanisms":[],"state":"UNKNOWN","name":"AMP"}},"paar":[],"snp":[]}},"uuid":"90370_Ty2","_collection":"5980876c69994e0017ee0f7f","fileId":"f19ce57be5db4bd3f12a03fe95a18f3b5a3d73d6","name":"Ty2_ST1","country":"ru","pmid":"12644504","userDefined":{"country":"Russia","accuracy":"1","strain":"Ty2","source":"Unknown","accession":"GCF_000007545.1","study accession":"PRJNA371","sanger lane":"NA"},"metrics":{"assemblyN50Data":{"sequenceLength":4791961,"sum":4791961,"sequenceNumber":1},"sumsOfNucleotidesInDnaStrings":[4791961],"gcContent":52.1,"biggestNumberOfNucleotidesInDnaStrings":4791961,"smallestNumberOfNucleotidesInDnaStrings":4791961,"averageNumberOfNucleotidesInDnaStrings":4791961,"totalNumberOfNsInDnaStrings":11,"totalNumberOfNucleotidesInDnaStrings":4791961,"contigN50":4791961,"totalNumberOfContigs":1},"id":"5980876c69994e0017ee0f91"},{"date":{"year":2004,"month":null,"day":null},"position":{"latitude":19.85627,"longitude":102.495496},"analysis":{"core":{"matches":[],"size":3914,"percentMatched":99.9,"percentAssemblyMatched":76.5},"genotyphi":{"genotype":"2.2.3,2.2.2","snps":4,"foundLoci":68},"mlst":{"alleles":[],"matches":[],"st":"2","code":"1_1_2_1_1_1_5"},"paarsnp":{"matches":[],"antibiotics":{"SIL":{"mechanisms":[],"state":"UNKNOWN","name":"SIL"},"AZM":{"mechanisms":[],"state":"UNKNOWN","name":"AZM"},"TCY":{"mechanisms":[],"state":"UNKNOWN","name":"TCY"},"SXT":{"mechanisms":[],"state":"UNKNOWN","name":"SXT"},"TMP":{"mechanisms":[],"state":"UNKNOWN","name":"TMP"},"SMX":{"mechanisms":[],"state":"UNKNOWN","name":"SMX"},"NAL":{"mechanisms":[],"state":"UNKNOWN","name":"NAL"},"CIP":{"mechanisms":[],"state":"UNKNOWN","name":"CIP"},"CHL":{"mechanisms":[],"state":"UNKNOWN","name":"CHL"},"CEP":{"mechanisms":[],"state":"UNKNOWN","name":"CEP"},"AMP":{"mechanisms":[],"state":"UNKNOWN","name":"AMP"}},"paar":[],"snp":[]}},"uuid":"90370_UI4692","_collection":"5980876c69994e0017ee0f7f","fileId":"6844efe8377dd0adc940144d7a255459347080bf","name":"UI4692_ST2","country":"la","pmid":"25961941","userDefined":{"country":"Laos","accuracy":"1","strain":"UI4692","source":"Blood","accession":"ERR331348","study accession":"ERP001718","sanger lane":"10060_6#51"},"metrics":{"assemblyN50Data":{"sequenceLength":185395,"sum":2493856,"sequenceNumber":9},"sumsOfNucleotidesInDnaStrings":[492715,885857,1181434,1430988,1675921,1897869,2104154,2308461,2493856,2665826,2819560,2968905,3113636,3257165,3399340,3538683,3670807,3784402,3893568,3991482,4084220,4165084,4229815,4292860,4355197,4415799,4466983,4510843,4544005,4575744,4606663,4633000,4655345,4667690,4676205,4683279,4690076,4695216,4699031,4702838,4705533,4707269,4707798],"gcContent":52.1,"biggestNumberOfNucleotidesInDnaStrings":492715,"smallestNumberOfNucleotidesInDnaStrings":529,"averageNumberOfNucleotidesInDnaStrings":109483,"totalNumberOfNsInDnaStrings":0,"totalNumberOfNucleotidesInDnaStrings":4707798,"contigN50":185395,"totalNumberOfContigs":43},"id":"5980876c69994e0017ee0f92"}],"resistance":{"snp":{"SIL":{"gyrA":[{"effect":"RESISTANT","snpName":"D87V"}],"gyrB":[{"effect":"RESISTANT","snpName":"A574V"}],"parE":[{"effect":"RESISTANT","snpName":"A353V"},{"effect":"RESISTANT","snpName":"A364V"},{"effect":"RESISTANT","snpName":"E460K"}]},"CIP":{"gyrB":[{"effect":"RESISTANT","snpName":"Q465L"},{"effect":"RESISTANT","snpName":"Q465R"},{"effect":"RESISTANT","snpName":"S464F"},{"effect":"RESISTANT","snpName":"S464Y"}],"parE":[{"effect":"RESISTANT","snpName":"D420N"},{"effect":"RESISTANT","snpName":"L416F"}],"parC":[{"effect":"RESISTANT","snpName":"E84G"},{"effect":"RESISTANT","snpName":"E84K"},{"effect":"RESISTANT","snpName":"S80I"}],"gyrA":[{"effect":"RESISTANT","snpName":"D87A"},{"effect":"RESISTANT","snpName":"D87G"},{"effect":"RESISTANT","snpName":"D87N"},{"effect":"RESISTANT","snpName":"D87Y"},{"effect":"RESISTANT","snpName":"S83F"},{"effect":"RESISTANT","snpName":"S83Y"}]},"NAL":{"gyrB":[{"effect":"RESISTANT","snpName":"Q465L"},{"effect":"RESISTANT","snpName":"Q465R"},{"effect":"RESISTANT","snpName":"S464F"},{"effect":"RESISTANT","snpName":"S464Y"}],"parE":[{"effect":"RESISTANT","snpName":"D420N"},{"effect":"RESISTANT","snpName":"L416F"}],"parC":[{"effect":"RESISTANT","snpName":"E84G"},{"effect":"RESISTANT","snpName":"E84K"},{"effect":"RESISTANT","snpName":"S80I"}],"gyrA":[{"effect":"RESISTANT","snpName":"D87A"},{"effect":"RESISTANT","snpName":"D87G"},{"effect":"RESISTANT","snpName":"D87N"},{"effect":"RESISTANT","snpName":"D87Y"},{"effect":"RESISTANT","snpName":"S83F"},{"effect":"RESISTANT","snpName":"S83Y"}]}},"paar":{"SIL":[{"effect":"RESISTANT","element":"tetR(A)"},{"effect":"RESISTANT","element":"tetR(B)"}],"SXT":[{"effect":"RESISTANT","element":"dfrA1"},{"effect":"RESISTANT","element":"dfrA5"},{"effect":"RESISTANT","element":"dfrA7"},{"effect":"RESISTANT","element":"dfrA14"},{"effect":"RESISTANT","element":"sul1"},{"effect":"RESISTANT","element":"sul2"}],"AMP":[{"effect":"RESISTANT","element":"OXA-1"},{"effect":"RESISTANT","element":"OXA-7"},{"effect":"RESISTANT","element":"OXA-23"},{"effect":"RESISTANT","element":"TEM-1"}],"TCY":[{"effect":"RESISTANT","element":"tetA(A)"},{"effect":"RESISTANT","element":"tetA(B)"},{"effect":"RESISTANT","element":"tetA(C)"},{"effect":"RESISTANT","element":"tetA(D)"}],"CIP":[{"effect":"RESISTANT","element":"aac6-Ib-cr"},{"effect":"RESISTANT","element":"qnr-S"},{"effect":"RESISTANT","element":"qnrA"},{"effect":"RESISTANT","element":"qnrB"},{"effect":"RESISTANT","element":"qnrD"}],"SMX":[{"effect":"RESISTANT","element":"sul1"},{"effect":"RESISTANT","element":"sul2"}],"CHL":[{"effect":"RESISTANT","element":"catA1"},{"effect":"RESISTANT","element":"catQ"},{"effect":"RESISTANT","element":"cmlA"}],"CEP":[{"effect":"RESISTANT","element":"CMY-2"},{"effect":"RESISTANT","element":"CTX-M-15"},{"effect":"RESISTANT","element":"SHV-12"},{"effect":"RESISTANT","element":"beta-lactamase_class-C"}],"TMP":[{"effect":"RESISTANT","element":"dfrA1"},{"effect":"RESISTANT","element":"dfrA5"},{"effect":"RESISTANT","element":"dfrA7"},{"effect":"RESISTANT","element":"dfrA14"},{"effect":"RESISTANT","element":"dfrA18"}],"AZM":[{"effect":"RESISTANT","element":"ereA"},{"effect":"RESISTANT","element":"ereB"},{"effect":"RESISTANT","element":"ermA"},{"effect":"RESISTANT","element":"ermB"},{"effect":"RESISTANT","element":"ermC"},{"effect":"RESISTANT","element":"mefA"},{"effect":"RESISTANT","element":"mphA"},{"effect":"RESISTANT","element":"mphB"},{"effect":"RESISTANT","element":"msrA"},{"effect":"RESISTANT","element":"msrD"}]},"antibiotics":[{"displayName":"AMP","fullName":"Ampicillin","antimicrobialClass":"Beta-lactam","key":"AMP"},{"displayName":"CEP","fullName":"Broad-Spectrum Cephalosporins","antimicrobialClass":"Beta-lactam","key":"CEP"},{"displayName":"CHL","fullName":"Chloramphenicol","antimicrobialClass":"Phenicols","key":"CHL"},{"displayName":"CIP","fullName":"Ciprofloxacin","antimicrobialClass":"Fluoroquinolones","key":"CIP"},{"displayName":"NAL","fullName":"Nalidixic acid","antimicrobialClass":"Fluoroquinolones","key":"NAL"},{"displayName":"SMX","fullName":"Sulfonamides","antimicrobialClass":"Sulfonamides","key":"SMX"},{"displayName":"TMP","fullName":"Trimethoprim","antimicrobialClass":"Diaminopyrimidine","key":"TMP"},{"displayName":"SXT","fullName":"Co-trimoxazole","antimicrobialClass":"Combination","key":"SXT"},{"displayName":"TCY","fullName":"Tetracycline","antimicrobialClass":"Tetracyclines","key":"TCY"},{"displayName":"AZM","fullName":"Azithromycin","antimicrobialClass":"Macrolides","key":"AZM"},{"displayName":"OTHER","fullName":"Silent","antimicrobialClass":"Silent","key":"SIL"}]},"tree":"(((((((90370_E98-0664_66:101.51875,90370_D50739:125.48125):13.12207031,(90370_ERL024120:163.6738281,90370_11909_3:135.3261719):4.877929688):0.9411621094,(((((((90370_007898:81.26442308,90370_Ty2:63.73557692):1.138020833,90370_ERL072973:45.86197917):19.70028409,90370_H12ESR00394-001A:81.29971591):11.98003472,90370_H12ESR00755-001A:95.26996528):3.469238281,90370_LNT1148:76.21826172):9.014648438,90370_404Ty:101.2978516):1.105664062,(90370_ERL041834:75.93080357,90370_CT18:155.0691964):5.933398438):29.17407227):1.574462891,(90370_UI4692:107.5666667,90370_ST1921-06:121.4333333):31.61116536):28.38883464,90370_M326:145.2678571):22.48214286,(90370_E02-1180:167.6764706,90370_E00-7866:174.3235294):76.28125):48.80698529,90370_76-1292:299.4117647);","taxId":"90370","deployed":"2017-08-01T13:52:55.977Z","id":"598087b7a1aaa80001906341"},"genomes":[{"_id":"59e11d1a97ad4b00013f158b","uuid":"NzQwN2ZhZTctZTk2Mi00Yj","_genome":"59e11c7297ad4b00013f1582","name":"10425_1#13.contigs_velvet.fasta","date":{"year":null,"month":null,"day":null},"position":{"latitude":null,"longitude":null},"country":null,"pmid":null,"userDefined":null,"analysis":{"fp":{"subtype":"90370_Ty2","referenceName":"Ty2_ST1"},"genotyphi":{"genotype":"4.1","foundLoci":68},"paarsnp":{"antibiotics":{"AMP":{"name":"AMP","fullName":"Ampicillin","state":"NOT_FOUND","mechanisms":[]},"CEP":{"name":"CEP","fullName":"Broad-Spectrum Cephalosporins","state":"NOT_FOUND","mechanisms":[]},"CHL":{"name":"CHL","fullName":"Chloramphenicol","state":"NOT_FOUND","mechanisms":[]},"CIP":{"name":"CIP","fullName":"Ciprofloxacin","state":"NOT_FOUND","mechanisms":[]},"NAL":{"name":"NAL","fullName":"Nalidixic acid","state":"NOT_FOUND","mechanisms":[]},"SMX":{"name":"SMX","fullName":"Sulfonamides","state":"NOT_FOUND","mechanisms":[]},"TMP":{"name":"TMP","fullName":"Trimethoprim","state":"NOT_FOUND","mechanisms":[]},"SXT":{"name":"SXT","fullName":"Co-trimoxazole","state":"NOT_FOUND","mechanisms":[]},"TCY":{"name":"TCY","fullName":"Tetracycline","state":"NOT_FOUND","mechanisms":[]},"AZM":{"name":"AZM","fullName":"Azithromycin","state":"NOT_FOUND","mechanisms":[]},"SIL":{"name":"SIL","fullName":"Other","state":"NOT_FOUND","mechanisms":[]}},"paar":[],"snp":[]},"mlst":{"st":"fcd6468e2ac1f0f64d86b2241ab5ee992647a6ed","alleles":[{"gene":"aroC","hits":[]},{"gene":"dnaN","hits":[1]},{"gene":"hemD","hits":[1]},{"gene":"hisD","hits":[1]},{"gene":"purE","hits":[1]},{"gene":"sucA","hits":[1]},{"gene":"thrA","hits":[5]}]},"metrics":{"__v":"v1","contigSums":[488980,751760,1001914,1251579,1497048,1717850,1935784,2142155,2345805,2530300,2702249,2864578,3017268,3166630,3310750,3454671,3590343,3720113,3833643,3931610,4012473,4077216,4140360,4200977,4257210,4311263,4360019,4403852,4447474,4490300,4523462,4555307,4586254,4612543,4634888,4655078,4667398,4675969,4683135,4690235,4696903,4703202,4707536,4711341,4714696,4717830,4720732,4723455,4725268,4726530,4727390,4728041,4728411,4728770,4729114],"gcContent":"52.0","nonATCG":7868,"N50Contig":10,"N50":184495,"averageContig":85983,"largestContig":488980,"smallestContig":344,"contigs":55,"length":4729114},"core":{"size":3896,"percentMatched":99.5,"percentAssemblyMatched":75.8}}}]}
