{"colllectionId":"90370","assemblies":{"90370_ERL024120":{"id":"90370_ERL024120","name":"ERL024120","metadata":{"assemblyId":"90370_ERL024120","speciesId":"90370","assemblyName":"ERL024120","date":{"year":"2002"},"position":{"latitude":"-0.789275","longitude":"113.921327"},"pmid":"25961941","userDefined":{"country":"Indonesia","accuracy":"1","genotype":"2.1.2","strain":"ERL024120","source":"Stool","accession":"ERR343252","study accession":"ERP001718","sanger lane":"10349_1#4"},"metrics":{"totalNumberOfContigs":1,"assemblyN50Data":{"sequenceNumber":1,"sum":4811886,"sequenceLength":4811886},"contigN50":4811886,"sumsOfNucleotidesInDnaStrings":[4811886],"totalNumberOfNucleotidesInDnaStrings":4811886,"totalNumberOfNsInDnaStrings":0,"averageNumberOfNucleotidesInDnaStrings":4811886,"smallestNumberOfNucleotidesInDnaStrings":4811886,"biggestNumberOfNucleotidesInDnaStrings":4811886,"gcContent":"52.1"}},"analysis":{"populationSubtype":null,"st":"2138","mlst":"1_465_2_1_1_1_5","core":{"size":3919,"percentMatched":100,"percentAssemblyMatched":74.9},"resistanceProfile":{"antibiotics":{"AMP":{"name":"AMP","state":"UNKNOWN","mechanisms":[]},"CEP":{"name":"CEP","state":"UNKNOWN","mechanisms":[]},"CHL":{"name":"CHL","state":"UNKNOWN","mechanisms":[]},"CIP":{"name":"CIP","state":"UNKNOWN","mechanisms":[]},"NAL":{"name":"NAL","state":"UNKNOWN","mechanisms":[]},"SMX":{"name":"SMX","state":"UNKNOWN","mechanisms":[]},"TMP":{"name":"TMP","state":"UNKNOWN","mechanisms":[]},"SXT":{"name":"SXT","state":"UNKNOWN","mechanisms":[]},"TCY":{"name":"TCY","state":"UNKNOWN","mechanisms":[]},"AZM":{"name":"AZM","state":"UNKNOWN","mechanisms":[]},"SIL":{"name":"SIL","state":"UNKNOWN","mechanisms":[]}},"paar":[],"snp":[]}}},"90370_M326":{"id":"90370_M326","name":"M326","metadata":{"assemblyId":"90370_M326","speciesId":"90370","assemblyName":"M326","date":{"year":"1939"},"position":{"latitude":"","longitude":""},"pmid":"26411565","userDefined":{"country":"Unknown","accuracy":"","genotype":"1.2.1","strain":"Craigie F 1","source":"Unknown","accession":"ERS203153","study accession":"PRJEB3255","sanger lane":"9471_7#42"},"metrics":{"totalNumberOfContigs":47,"assemblyN50Data":{"sequenceNumber":9,"sum":2513576,"sequenceLength":204340},"contigN50":204340,"sumsOfNucleotidesInDnaStrings":[466384,801637,1126875,1390459,1640658,1886135,2102934,2309236,2513576,2699405,2871643,3033883,3187455,3336830,3484416,3629186,3764726,3894537,3992523,4085104,4166002,4230757,4293839,4354521,4410763,4461285,4505175,4548040,4581196,4613139,4644096,4670418,4692763,4712996,4725379,4733970,4741082,4747762,4754061,4758768,4763267,4767223,4770357,4773090,4774826,4775208,4775555],"totalNumberOfNucleotidesInDnaStrings":4775555,"totalNumberOfNsInDnaStrings":8,"averageNumberOfNucleotidesInDnaStrings":101607,"smallestNumberOfNucleotidesInDnaStrings":347,"biggestNumberOfNucleotidesInDnaStrings":466384,"gcContent":"52.0"}},"analysis":{"populationSubtype":null,"st":"2","mlst":"1_1_2_1_1_1_5","core":{"size":3915,"percentMatched":100,"percentAssemblyMatched":75.4},"resistanceProfile":{"antibiotics":{"AMP":{"name":"AMP","state":"UNKNOWN","mechanisms":[]},"CEP":{"name":"CEP","state":"UNKNOWN","mechanisms":[]},"CHL":{"name":"CHL","state":"UNKNOWN","mechanisms":[]},"CIP":{"name":"CIP","state":"UNKNOWN","mechanisms":[]},"NAL":{"name":"NAL","state":"UNKNOWN","mechanisms":[]},"SMX":{"name":"SMX","state":"UNKNOWN","mechanisms":[]},"TMP":{"name":"TMP","state":"UNKNOWN","mechanisms":[]},"SXT":{"name":"SXT","state":"UNKNOWN","mechanisms":[]},"TCY":{"name":"TCY","state":"UNKNOWN","mechanisms":[]},"AZM":{"name":"AZM","state":"UNKNOWN","mechanisms":[]},"SIL":{"name":"SIL","state":"UNKNOWN","mechanisms":[]}},"paar":[],"snp":[]}}},"90370_11909_3":{"id":"90370_11909_3","name":"11909_3","metadata":{"assemblyId":"90370_11909_3","speciesId":"90370","assemblyName":"11909_3","date":{"year":"2011"},"position":{"latitude":"23.634501","longitude":"-102.552784"},"pmid":"25961941","userDefined":{"country":"Mexico","accuracy":"1","genotype":"2.0.2","strain":"11909_3","source":"Stool","accession":"ERR343321","study accession":"ERP001718","sanger lane":"10349_1#73"},"metrics":{"totalNumberOfContigs":4,"assemblyN50Data":{"sequenceNumber":1,"sum":4753305,"sequenceLength":4753305},"contigN50":4753305,"sumsOfNucleotidesInDnaStrings":[4753305,4780011,4801058,4811824],"totalNumberOfNucleotidesInDnaStrings":4811824,"totalNumberOfNsInDnaStrings":0,"averageNumberOfNucleotidesInDnaStrings":1202956,"smallestNumberOfNucleotidesInDnaStrings":10766,"biggestNumberOfNucleotidesInDnaStrings":4753305,"gcContent":"52.0"}},"analysis":{"populationSubtype":null,"st":"2","mlst":"1_1_2_1_1_1_5","core":{"size":3928,"percentMatched":100,"percentAssemblyMatched":75.1},"resistanceProfile":{"antibiotics":{"AMP":{"name":"AMP","state":"UNKNOWN","mechanisms":[]},"CEP":{"name":"CEP","state":"UNKNOWN","mechanisms":[]},"CHL":{"name":"CHL","state":"UNKNOWN","mechanisms":[]},"CIP":{"name":"CIP","state":"RESISTANT","mechanisms":["gyrA_S83F","parC_E84G"]},"NAL":{"name":"NAL","state":"RESISTANT","mechanisms":["gyrA_S83F","parC_E84G"]},"SMX":{"name":"SMX","state":"UNKNOWN","mechanisms":[]},"TMP":{"name":"TMP","state":"UNKNOWN","mechanisms":[]},"SXT":{"name":"SXT","state":"UNKNOWN","mechanisms":[]},"TCY":{"name":"TCY","state":"UNKNOWN","mechanisms":[]},"AZM":{"name":"AZM","state":"UNKNOWN","mechanisms":[]},"SIL":{"name":"SIL","state":"UNKNOWN","mechanisms":[]}},"paar":[],"snp":["parC_E84G","gyrA_S83F"]}}},"90370_CT18":{"id":"90370_CT18","name":"CT18","metadata":{"assemblyId":"90370_CT18","speciesId":"90370","assemblyName":"CT18","date":{"year":"1993"},"position":{"latitude":"14.058324","longitude":"108.277199"},"pmid":"11677608","userDefined":{"country":"Vietnam","accuracy":"1","genotype":"3.2.1","strain":"CT18","source":"Blood","accession":"AL513382.1","study accession":"PRJNA236","sanger lane":"28050_A01"},"metrics":{"totalNumberOfContigs":12,"assemblyN50Data":{"sequenceNumber":1,"sum":3286682,"sequenceLength":3286682},"contigN50":3286682,"sumsOfNucleotidesInDnaStrings":[3286682,4582746,4809978,4951884,5068943,5136345,5154082,5170782,5186538,5198784,5204571,5206036],"totalNumberOfNucleotidesInDnaStrings":5206036,"totalNumberOfNsInDnaStrings":0,"averageNumberOfNucleotidesInDnaStrings":433836,"smallestNumberOfNucleotidesInDnaStrings":1465,"biggestNumberOfNucleotidesInDnaStrings":3286682,"gcContent":"51.9"}},"analysis":{"populationSubtype":null,"st":"2","mlst":"1_1_2_1_1_1_5","core":{"size":3916,"percentMatched":100,"percentAssemblyMatched":70.2},"resistanceProfile":{"antibiotics":{"AMP":{"name":"AMP","state":"RESISTANT","mechanisms":["TEM-1"]},"CEP":{"name":"CEP","state":"UNKNOWN","mechanisms":[]},"CHL":{"name":"CHL","state":"RESISTANT","mechanisms":["catA1"]},"CIP":{"name":"CIP","state":"UNKNOWN","mechanisms":[]},"NAL":{"name":"NAL","state":"UNKNOWN","mechanisms":[]},"SMX":{"name":"SMX","state":"RESISTANT","mechanisms":["sul2"]},"TMP":{"name":"TMP","state":"RESISTANT","mechanisms":["dfrA14"]},"SXT":{"name":"SXT","state":"RESISTANT","mechanisms":["sul2-dfrA14"]},"TCY":{"name":"TCY","state":"RESISTANT","mechanisms":["tetA(D)","tetA(B)"]},"AZM":{"name":"AZM","state":"UNKNOWN","mechanisms":[]},"SIL":{"name":"SIL","state":"UNKNOWN","mechanisms":[]}},"paar":["TEM-1","tetA(D)","dfrA14","catA1","tetA(B)","sul2"],"snp":[]}}},"90370_E02-1180":{"id":"90370_E02-1180","name":"E02-1180","metadata":{"assemblyId":"90370_E02-1180","speciesId":"90370","assemblyName":"E02-1180","date":{"year":"2002"},"position":{"latitude":"20.593684","longitude":"78.96288"},"pmid":"25961941","userDefined":{"country":"India","accuracy":"1","genotype":"0.0.3","strain":"E02-1180","source":"Blood","accession":"ERR343337","study accession":"ERP001718","sanger lane":"10349_1#89"},"metrics":{"totalNumberOfContigs":4,"assemblyN50Data":{"sequenceNumber":1,"sum":4793071,"sequenceLength":4793071},"contigN50":4793071,"sumsOfNucleotidesInDnaStrings":[4793071,4811380,4828435,4838914],"totalNumberOfNucleotidesInDnaStrings":4838914,"totalNumberOfNsInDnaStrings":0,"averageNumberOfNucleotidesInDnaStrings":1209728,"smallestNumberOfNucleotidesInDnaStrings":10479,"biggestNumberOfNucleotidesInDnaStrings":4793071,"gcContent":"52.1"}},"analysis":{"populationSubtype":null,"st":"2","mlst":"1_1_2_1_1_1_5","core":{"size":3922,"percentMatched":100,"percentAssemblyMatched":74.6},"resistanceProfile":{"antibiotics":{"AMP":{"name":"AMP","state":"UNKNOWN","mechanisms":[]},"CEP":{"name":"CEP","state":"UNKNOWN","mechanisms":[]},"CHL":{"name":"CHL","state":"UNKNOWN","mechanisms":[]},"CIP":{"name":"CIP","state":"RESISTANT","mechanisms":["gyrA_D87G"]},"NAL":{"name":"NAL","state":"RESISTANT","mechanisms":["gyrA_D87G"]},"SMX":{"name":"SMX","state":"UNKNOWN","mechanisms":[]},"TMP":{"name":"TMP","state":"UNKNOWN","mechanisms":[]},"SXT":{"name":"SXT","state":"UNKNOWN","mechanisms":[]},"TCY":{"name":"TCY","state":"UNKNOWN","mechanisms":[]},"AZM":{"name":"AZM","state":"UNKNOWN","mechanisms":[]},"SIL":{"name":"SIL","state":"UNKNOWN","mechanisms":[]}},"paar":[],"snp":["gyrA_D87G"]}}},"90370_LNT1148":{"id":"90370_LNT1148","name":"LNT1148","metadata":{"assemblyId":"90370_LNT1148","speciesId":"90370","assemblyName":"LNT1148","date":{"year":"2001"},"position":{"latitude":"19.85627","longitude":"102.495496"},"pmid":"25961941","userDefined":{"country":"Laos","accuracy":"1","genotype":"3.4.0","strain":"LNT1148","source":"Blood","accession":"ERR340779","study accession":"ERP001718","sanger lane":"10209_5#23"},"metrics":{"totalNumberOfContigs":46,"assemblyN50Data":{"sequenceNumber":9,"sum":2419529,"sequenceLength":204320},"contigN50":204320,"sumsOfNucleotidesInDnaStrings":[508778,806524,1069387,1319709,1569243,1791211,2008893,2215209,2419529,2605620,2777603,2940413,3096591,3250312,3399694,3544480,3688043,3801575,3899561,3991784,4072819,4153830,4218573,4281655,4342902,4401397,4457640,4503566,4547464,4580626,4612269,4643226,4669806,4692151,4704534,4713125,4720237,4726940,4731341,4735189,4738578,4741311,4742030,4742593,4743132,4743503],"totalNumberOfNucleotidesInDnaStrings":4743503,"totalNumberOfNsInDnaStrings":2,"averageNumberOfNucleotidesInDnaStrings":103119,"smallestNumberOfNucleotidesInDnaStrings":371,"biggestNumberOfNucleotidesInDnaStrings":508778,"gcContent":"52.1"}},"analysis":{"populationSubtype":null,"st":"1","mlst":"1_1_1_1_1_1_5","core":{"size":3916,"percentMatched":100,"percentAssemblyMatched":76},"resistanceProfile":{"antibiotics":{"AMP":{"name":"AMP","state":"UNKNOWN","mechanisms":[]},"CEP":{"name":"CEP","state":"UNKNOWN","mechanisms":[]},"CHL":{"name":"CHL","state":"UNKNOWN","mechanisms":[]},"CIP":{"name":"CIP","state":"UNKNOWN","mechanisms":[]},"NAL":{"name":"NAL","state":"UNKNOWN","mechanisms":[]},"SMX":{"name":"SMX","state":"UNKNOWN","mechanisms":[]},"TMP":{"name":"TMP","state":"UNKNOWN","mechanisms":[]},"SXT":{"name":"SXT","state":"UNKNOWN","mechanisms":[]},"TCY":{"name":"TCY","state":"UNKNOWN","mechanisms":[]},"AZM":{"name":"AZM","state":"UNKNOWN","mechanisms":[]},"SIL":{"name":"SIL","state":"UNKNOWN","mechanisms":[]}},"paar":[],"snp":[]}}},"90370_H12ESR00755-001A":{"id":"90370_H12ESR00755-001A","name":"H12ESR00755-001A","metadata":{"assemblyId":"90370_H12ESR00755-001A","speciesId":"90370","assemblyName":"H12ESR00755-001A","date":{"year":"2012"},"position":{"latitude":"12.879721","longitude":"121.774017"},"pmid":"25961941","userDefined":{"country":"Phillipines","accuracy":"1","genotype":"3.0.0","strain":"H12ESR00755-001A","source":"Blood","accession":"ERR343328","study accession":"ERP001718","sanger lane":"10349_1#80"},"metrics":{"totalNumberOfContigs":2,"assemblyN50Data":{"sequenceNumber":1,"sum":4802146,"sequenceLength":4802146},"contigN50":4802146,"sumsOfNucleotidesInDnaStrings":[4802146,4814227],"totalNumberOfNucleotidesInDnaStrings":4814227,"totalNumberOfNsInDnaStrings":0,"averageNumberOfNucleotidesInDnaStrings":2407113,"smallestNumberOfNucleotidesInDnaStrings":12081,"biggestNumberOfNucleotidesInDnaStrings":4802146,"gcContent":"52.1"}},"analysis":{"populationSubtype":null,"st":"1","mlst":"1_1_1_1_1_1_5","core":{"size":3919,"percentMatched":100,"percentAssemblyMatched":74.9},"resistanceProfile":{"antibiotics":{"AMP":{"name":"AMP","state":"UNKNOWN","mechanisms":[]},"CEP":{"name":"CEP","state":"UNKNOWN","mechanisms":[]},"CHL":{"name":"CHL","state":"UNKNOWN","mechanisms":[]},"CIP":{"name":"CIP","state":"UNKNOWN","mechanisms":[]},"NAL":{"name":"NAL","state":"UNKNOWN","mechanisms":[]},"SMX":{"name":"SMX","state":"UNKNOWN","mechanisms":[]},"TMP":{"name":"TMP","state":"UNKNOWN","mechanisms":[]},"SXT":{"name":"SXT","state":"UNKNOWN","mechanisms":[]},"TCY":{"name":"TCY","state":"UNKNOWN","mechanisms":[]},"AZM":{"name":"AZM","state":"UNKNOWN","mechanisms":[]},"SIL":{"name":"SIL","state":"UNKNOWN","mechanisms":[]}},"paar":[],"snp":[]}}},"90370_404Ty":{"id":"90370_404Ty","name":"404Ty","metadata":{"assemblyId":"90370_404Ty","speciesId":"90370","assemblyName":"404Ty","date":{"year":"1983"},"position":{"latitude":"-0.789275","longitude":"113.921327"},"pmid":"25961941","userDefined":{"country":"Indonesia","accuracy":"1","genotype":"3.1.2","strain":"404Ty","source":"Unknown","accession":"ERR343338","study accession":"ERP001718","sanger lane":"10349_1#90"},"metrics":{"totalNumberOfContigs":6,"assemblyN50Data":{"sequenceNumber":1,"sum":4807711,"sequenceLength":4807711},"contigN50":4807711,"sumsOfNucleotidesInDnaStrings":[4807711,4834426,4855938,4870654,4881265,4890679],"totalNumberOfNucleotidesInDnaStrings":4890679,"totalNumberOfNsInDnaStrings":0,"averageNumberOfNucleotidesInDnaStrings":815113,"smallestNumberOfNucleotidesInDnaStrings":9414,"biggestNumberOfNucleotidesInDnaStrings":4807711,"gcContent":"52.0"}},"analysis":{"populationSubtype":null,"st":"2","mlst":"1_1_2_1_1_1_5","core":{"size":3917,"percentMatched":100,"percentAssemblyMatched":73.7},"resistanceProfile":{"antibiotics":{"AMP":{"name":"AMP","state":"UNKNOWN","mechanisms":[]},"CEP":{"name":"CEP","state":"UNKNOWN","mechanisms":[]},"CHL":{"name":"CHL","state":"UNKNOWN","mechanisms":[]},"CIP":{"name":"CIP","state":"UNKNOWN","mechanisms":[]},"NAL":{"name":"NAL","state":"UNKNOWN","mechanisms":[]},"SMX":{"name":"SMX","state":"UNKNOWN","mechanisms":[]},"TMP":{"name":"TMP","state":"UNKNOWN","mechanisms":[]},"SXT":{"name":"SXT","state":"UNKNOWN","mechanisms":[]},"TCY":{"name":"TCY","state":"RESISTANT","mechanisms":["tetA(D)","tetA(B)"]},"AZM":{"name":"AZM","state":"UNKNOWN","mechanisms":[]},"SIL":{"name":"SIL","state":"UNKNOWN","mechanisms":[]}},"paar":["tetA(D)","tetA(B)"],"snp":[]}}},"90370_E00-7866":{"id":"90370_E00-7866","name":"E00-7866","metadata":{"assemblyId":"90370_E00-7866","speciesId":"90370","assemblyName":"E00-7866","date":{"year":"2000"},"position":{"latitude":"31.791702","longitude":"-7.09262"},"pmid":"25961941","userDefined":{"country":"Morocco","accuracy":"1","genotype":"0.1.0","strain":"E00-7866","source":"Blood","accession":"ERR343336","study accession":"ERP001718","sanger lane":"10349_1#88"},"metrics":{"totalNumberOfContigs":3,"assemblyN50Data":{"sequenceNumber":1,"sum":4797408,"sequenceLength":4797408},"contigN50":4797408,"sumsOfNucleotidesInDnaStrings":[4797408,4820207,4831122],"totalNumberOfNucleotidesInDnaStrings":4831122,"totalNumberOfNsInDnaStrings":0,"averageNumberOfNucleotidesInDnaStrings":1610374,"smallestNumberOfNucleotidesInDnaStrings":10915,"biggestNumberOfNucleotidesInDnaStrings":4797408,"gcContent":"52.1"}},"analysis":{"populationSubtype":null,"st":"2","mlst":"1_1_2_1_1_1_5","core":{"size":3917,"percentMatched":100,"percentAssemblyMatched":74.6},"resistanceProfile":{"antibiotics":{"AMP":{"name":"AMP","state":"UNKNOWN","mechanisms":[]},"CEP":{"name":"CEP","state":"UNKNOWN","mechanisms":[]},"CHL":{"name":"CHL","state":"UNKNOWN","mechanisms":[]},"CIP":{"name":"CIP","state":"UNKNOWN","mechanisms":[]},"NAL":{"name":"NAL","state":"UNKNOWN","mechanisms":[]},"SMX":{"name":"SMX","state":"UNKNOWN","mechanisms":[]},"TMP":{"name":"TMP","state":"UNKNOWN","mechanisms":[]},"SXT":{"name":"SXT","state":"UNKNOWN","mechanisms":[]},"TCY":{"name":"TCY","state":"UNKNOWN","mechanisms":[]},"AZM":{"name":"AZM","state":"UNKNOWN","mechanisms":[]},"SIL":{"name":"SIL","state":"UNKNOWN","mechanisms":[]}},"paar":[],"snp":[]}}},"90370_ERL041834":{"id":"90370_ERL041834","name":"ERL041834","metadata":{"assemblyId":"90370_ERL041834","speciesId":"90370","assemblyName":"ERL041834","date":{"year":"2004"},"position":{"latitude":"20.593684","longitude":"78.96288"},"pmid":"25961941","userDefined":{"country":"India","accuracy":"1","genotype":"3.3.0","strain":"ERL041834","source":"Stool","accession":"ERR343264","study accession":"ERP001718","sanger lane":"10349_1#16"},"metrics":{"totalNumberOfContigs":5,"assemblyN50Data":{"sequenceNumber":1,"sum":4675147,"sequenceLength":4675147},"contigN50":4675147,"sumsOfNucleotidesInDnaStrings":[4675147,4832212,4853812,4873450,4892436],"totalNumberOfNucleotidesInDnaStrings":4892436,"totalNumberOfNsInDnaStrings":0,"averageNumberOfNucleotidesInDnaStrings":978487,"smallestNumberOfNucleotidesInDnaStrings":18986,"biggestNumberOfNucleotidesInDnaStrings":4675147,"gcContent":"52.1"}},"analysis":{"populationSubtype":null,"st":"2","mlst":"1_1_2_1_1_1_5","core":{"size":3926,"percentMatched":100,"percentAssemblyMatched":73.9},"resistanceProfile":{"antibiotics":{"AMP":{"name":"AMP","state":"UNKNOWN","mechanisms":[]},"CEP":{"name":"CEP","state":"UNKNOWN","mechanisms":[]},"CHL":{"name":"CHL","state":"UNKNOWN","mechanisms":[]},"CIP":{"name":"CIP","state":"UNKNOWN","mechanisms":[]},"NAL":{"name":"NAL","state":"UNKNOWN","mechanisms":[]},"SMX":{"name":"SMX","state":"UNKNOWN","mechanisms":[]},"TMP":{"name":"TMP","state":"UNKNOWN","mechanisms":[]},"SXT":{"name":"SXT","state":"UNKNOWN","mechanisms":[]},"TCY":{"name":"TCY","state":"UNKNOWN","mechanisms":[]},"AZM":{"name":"AZM","state":"UNKNOWN","mechanisms":[]},"SIL":{"name":"SIL","state":"RESISTANT","mechanisms":["parE_A364V"]}},"paar":[],"snp":["parE_A364V"]}}},"90370_76-1292":{"id":"90370_76-1292","name":"76_1292","metadata":{"assemblyId":"90370_76-1292","speciesId":"90370","assemblyName":"76_1292","date":{"year":"1976"},"position":{"latitude":"-4.038333","longitude":"21.758664"},"pmid":"25961941","userDefined":{"country":"Democratic Republic of Congo","accuracy":"1","genotype":"1.1.3","strain":"76_1292","source":"Blood","accession":"ERR360511","study accession":"ERP001718","sanger lane":"10592_2#63"},"metrics":{"totalNumberOfContigs":3,"assemblyN50Data":{"sequenceNumber":1,"sum":4780549,"sequenceLength":4780549},"contigN50":4780549,"sumsOfNucleotidesInDnaStrings":[4780549,4925937,4934685],"totalNumberOfNucleotidesInDnaStrings":4934685,"totalNumberOfNsInDnaStrings":0,"averageNumberOfNucleotidesInDnaStrings":1644895,"smallestNumberOfNucleotidesInDnaStrings":8748,"biggestNumberOfNucleotidesInDnaStrings":4780549,"gcContent":"52.1"}},"analysis":{"populationSubtype":null,"st":"8","mlst":"1_1_2_3_1_1_5","core":{"size":3923,"percentMatched":100,"percentAssemblyMatched":73.2},"resistanceProfile":{"antibiotics":{"AMP":{"name":"AMP","state":"RESISTANT","mechanisms":["OXA-1"]},"CEP":{"name":"CEP","state":"UNKNOWN","mechanisms":[]},"CHL":{"name":"CHL","state":"RESISTANT","mechanisms":["catA1"]},"CIP":{"name":"CIP","state":"UNKNOWN","mechanisms":[]},"NAL":{"name":"NAL","state":"UNKNOWN","mechanisms":[]},"SMX":{"name":"SMX","state":"RESISTANT","mechanisms":["sul1"]},"TMP":{"name":"TMP","state":"UNKNOWN","mechanisms":[]},"SXT":{"name":"SXT","state":"UNKNOWN","mechanisms":[]},"TCY":{"name":"TCY","state":"RESISTANT","mechanisms":["tetA(C)","tetA(A)"]},"AZM":{"name":"AZM","state":"UNKNOWN","mechanisms":[]},"SIL":{"name":"SIL","state":"UNKNOWN","mechanisms":[]}},"paar":["sul1","catA1","tetA(C)","OXA-1","tetA(A)"],"snp":[]}}},"90370_10060_6_51":{"id":"90370_10060_6_51","name":"UI4692","metadata":{"assemblyId":"90370_10060_6_51","speciesId":"90370","assemblyName":"UI4692","date":{"year":"2004"},"position":{"latitude":"19.85627","longitude":"102.495496"},"pmid":"25961941","userDefined":{"country":"Laos","accuracy":"1","genotype":"2.2.3","strain":"UI4692","source":"Blood","accession":"ERR331348","study accession":"ERP001718","sanger lane":"10060_6#51"},"metrics":{"totalNumberOfContigs":43,"assemblyN50Data":{"sequenceNumber":9,"sum":2493856,"sequenceLength":185395},"contigN50":185395,"sumsOfNucleotidesInDnaStrings":[492715,885857,1181434,1430988,1675921,1897869,2104154,2308461,2493856,2665826,2819560,2968905,3113636,3257165,3399340,3538683,3670807,3784402,3893568,3991482,4084220,4165084,4229815,4292860,4355197,4415799,4466983,4510843,4544005,4575744,4606663,4633000,4655345,4667690,4676205,4683279,4690076,4695216,4699031,4702838,4705533,4707269,4707798],"totalNumberOfNucleotidesInDnaStrings":4707798,"totalNumberOfNsInDnaStrings":0,"averageNumberOfNucleotidesInDnaStrings":109483,"smallestNumberOfNucleotidesInDnaStrings":529,"biggestNumberOfNucleotidesInDnaStrings":492715,"gcContent":"52.1"}},"analysis":{"populationSubtype":null,"st":"2","mlst":"1_1_2_1_1_1_5","core":{"size":3915,"percentMatched":100,"percentAssemblyMatched":76.5},"resistanceProfile":{"antibiotics":{"AMP":{"name":"AMP","state":"UNKNOWN","mechanisms":[]},"CEP":{"name":"CEP","state":"UNKNOWN","mechanisms":[]},"CHL":{"name":"CHL","state":"UNKNOWN","mechanisms":[]},"CIP":{"name":"CIP","state":"UNKNOWN","mechanisms":[]},"NAL":{"name":"NAL","state":"UNKNOWN","mechanisms":[]},"SMX":{"name":"SMX","state":"UNKNOWN","mechanisms":[]},"TMP":{"name":"TMP","state":"UNKNOWN","mechanisms":[]},"SXT":{"name":"SXT","state":"UNKNOWN","mechanisms":[]},"TCY":{"name":"TCY","state":"UNKNOWN","mechanisms":[]},"AZM":{"name":"AZM","state":"UNKNOWN","mechanisms":[]},"SIL":{"name":"SIL","state":"UNKNOWN","mechanisms":[]}},"paar":[],"snp":[]}}},"90370_E98-0664_66":{"id":"90370_E98-0664_66","name":"E98-0664_66","metadata":{"assemblyId":"90370_E98-0664_66","speciesId":"90370","assemblyName":"E98-0664_66","date":{"year":"1998"},"position":{"latitude":"-0.023559","longitude":"37.906193"},"pmid":"25961941","userDefined":{"country":"Kenya","accuracy":"1","genotype":"2.5.0","strain":"E98-0664","source":"Unknown","accession":"ERR343334","study accession":"ERP001718","sanger lane":"10349_1#86"},"metrics":{"totalNumberOfContigs":3,"assemblyN50Data":{"sequenceNumber":1,"sum":4752533,"sequenceLength":4752533},"contigN50":4752533,"sumsOfNucleotidesInDnaStrings":[4752533,4761421,4764488],"totalNumberOfNucleotidesInDnaStrings":4764488,"totalNumberOfNsInDnaStrings":0,"averageNumberOfNucleotidesInDnaStrings":1588162,"smallestNumberOfNucleotidesInDnaStrings":3067,"biggestNumberOfNucleotidesInDnaStrings":4752533,"gcContent":"52.1"}},"analysis":{"populationSubtype":null,"st":"2","mlst":"1_1_2_1_1_1_5","core":{"size":3917,"percentMatched":100,"percentAssemblyMatched":75.7},"resistanceProfile":{"antibiotics":{"AMP":{"name":"AMP","state":"UNKNOWN","mechanisms":[]},"CEP":{"name":"CEP","state":"UNKNOWN","mechanisms":[]},"CHL":{"name":"CHL","state":"UNKNOWN","mechanisms":[]},"CIP":{"name":"CIP","state":"UNKNOWN","mechanisms":[]},"NAL":{"name":"NAL","state":"UNKNOWN","mechanisms":[]},"SMX":{"name":"SMX","state":"UNKNOWN","mechanisms":[]},"TMP":{"name":"TMP","state":"UNKNOWN","mechanisms":[]},"SXT":{"name":"SXT","state":"UNKNOWN","mechanisms":[]},"TCY":{"name":"TCY","state":"UNKNOWN","mechanisms":[]},"AZM":{"name":"AZM","state":"UNKNOWN","mechanisms":[]},"SIL":{"name":"SIL","state":"UNKNOWN","mechanisms":[]}},"paar":[],"snp":[]}}},"90370_10541_1_64":{"id":"90370_10541_1_64","name":"ST1921-06","metadata":{"assemblyId":"90370_10541_1_64","speciesId":"90370","assemblyName":"ST1921-06","date":{"year":"2006"},"position":{"latitude":"-38.416097","longitude":"-63.616672"},"pmid":"25961941","userDefined":{"country":"Argentina","accuracy":"1","genotype":"2.3.3","strain":"ST1921/06","source":"Stool","accession":"ERR353335","study accession":"ERP001718","sanger lane":"10541_1#64"},"metrics":{"totalNumberOfContigs":42,"assemblyN50Data":{"sequenceNumber":9,"sum":2560530,"sequenceLength":204238},"contigN50":204238,"sumsOfNucleotidesInDnaStrings":[466411,859542,1190912,1443632,1693230,1932340,2150014,2356292,2560530,2745947,2917943,3080946,3234697,3384051,3531313,3676106,3811699,3929123,4027054,4119639,4206744,4269806,4330478,4386697,4430574,4473879,4507491,4540673,4571631,4601961,4628257,4650602,4670801,4683280,4691809,4699017,4705699,4710198,4714020,4716754,4717473,4718006],"totalNumberOfNucleotidesInDnaStrings":4718006,"totalNumberOfNsInDnaStrings":0,"averageNumberOfNucleotidesInDnaStrings":112333,"smallestNumberOfNucleotidesInDnaStrings":533,"biggestNumberOfNucleotidesInDnaStrings":466411,"gcContent":"52.1"}},"analysis":{"populationSubtype":null,"st":"2","mlst":"1_1_2_1_1_1_5","core":{"size":3916,"percentMatched":100,"percentAssemblyMatched":76.4},"resistanceProfile":{"antibiotics":{"AMP":{"name":"AMP","state":"UNKNOWN","mechanisms":[]},"CEP":{"name":"CEP","state":"UNKNOWN","mechanisms":[]},"CHL":{"name":"CHL","state":"UNKNOWN","mechanisms":[]},"CIP":{"name":"CIP","state":"UNKNOWN","mechanisms":[]},"NAL":{"name":"NAL","state":"UNKNOWN","mechanisms":[]},"SMX":{"name":"SMX","state":"UNKNOWN","mechanisms":[]},"TMP":{"name":"TMP","state":"UNKNOWN","mechanisms":[]},"SXT":{"name":"SXT","state":"UNKNOWN","mechanisms":[]},"TCY":{"name":"TCY","state":"UNKNOWN","mechanisms":[]},"AZM":{"name":"AZM","state":"UNKNOWN","mechanisms":[]},"SIL":{"name":"SIL","state":"UNKNOWN","mechanisms":[]}},"paar":[],"snp":[]}}},"90370_ERL072973":{"id":"90370_ERL072973","name":"ERL072973","metadata":{"assemblyId":"90370_ERL072973","speciesId":"90370","assemblyName":"ERL072973","date":{"year":"2007"},"position":{"latitude":"-17.713371","longitude":"178.065032"},"pmid":"25961941","userDefined":{"country":"Fiji","accuracy":"1","genotype":"4.2.2","strain":"ERL072973","source":"Blood","accession":"ERR343279","study accession":"ERP001718","sanger lane":"10349_1#31"},"metrics":{"totalNumberOfContigs":2,"assemblyN50Data":{"sequenceNumber":1,"sum":4789877,"sequenceLength":4789877},"contigN50":4789877,"sumsOfNucleotidesInDnaStrings":[4789877,4806043],"totalNumberOfNucleotidesInDnaStrings":4806043,"totalNumberOfNsInDnaStrings":0,"averageNumberOfNucleotidesInDnaStrings":2403021,"smallestNumberOfNucleotidesInDnaStrings":16166,"biggestNumberOfNucleotidesInDnaStrings":4789877,"gcContent":"52.1"}},"analysis":{"populationSubtype":null,"st":"1","mlst":"1_1_1_1_1_1_5","core":{"size":3920,"percentMatched":100,"percentAssemblyMatched":75},"resistanceProfile":{"antibiotics":{"AMP":{"name":"AMP","state":"UNKNOWN","mechanisms":[]},"CEP":{"name":"CEP","state":"UNKNOWN","mechanisms":[]},"CHL":{"name":"CHL","state":"UNKNOWN","mechanisms":[]},"CIP":{"name":"CIP","state":"UNKNOWN","mechanisms":[]},"NAL":{"name":"NAL","state":"UNKNOWN","mechanisms":[]},"SMX":{"name":"SMX","state":"UNKNOWN","mechanisms":[]},"TMP":{"name":"TMP","state":"UNKNOWN","mechanisms":[]},"SXT":{"name":"SXT","state":"UNKNOWN","mechanisms":[]},"TCY":{"name":"TCY","state":"UNKNOWN","mechanisms":[]},"AZM":{"name":"AZM","state":"UNKNOWN","mechanisms":[]},"SIL":{"name":"SIL","state":"UNKNOWN","mechanisms":[]}},"paar":[],"snp":[]}}},"90370_Ty2":{"id":"90370_Ty2","name":"Ty2","metadata":{"assemblyId":"90370_Ty2","speciesId":"90370","assemblyName":"Ty2","date":{"year":"1916"},"position":{"latitude":"61.52401","longitude":"105.318756"},"pmid":"12644504","userDefined":{"country":"Russia","accuracy":"1","genotype":"4.1.0","strain":"Ty2","source":"Unknown","accession":"GCF_000007545.1","study accession":"PRJNA371","sanger lane":"NA"},"metrics":{"totalNumberOfContigs":1,"assemblyN50Data":{"sequenceNumber":1,"sum":4791961,"sequenceLength":4791961},"contigN50":4791961,"sumsOfNucleotidesInDnaStrings":[4791961],"totalNumberOfNucleotidesInDnaStrings":4791961,"totalNumberOfNsInDnaStrings":11,"averageNumberOfNucleotidesInDnaStrings":4791961,"smallestNumberOfNucleotidesInDnaStrings":4791961,"biggestNumberOfNucleotidesInDnaStrings":4791961,"gcContent":"52.1"}},"analysis":{"populationSubtype":null,"st":"1","mlst":"1_1_1_1_1_1_5","core":{"size":3917,"percentMatched":100,"percentAssemblyMatched":75.2},"resistanceProfile":{"antibiotics":{"AMP":{"name":"AMP","state":"UNKNOWN","mechanisms":[]},"CEP":{"name":"CEP","state":"UNKNOWN","mechanisms":[]},"CHL":{"name":"CHL","state":"UNKNOWN","mechanisms":[]},"CIP":{"name":"CIP","state":"UNKNOWN","mechanisms":[]},"NAL":{"name":"NAL","state":"UNKNOWN","mechanisms":[]},"SMX":{"name":"SMX","state":"UNKNOWN","mechanisms":[]},"TMP":{"name":"TMP","state":"UNKNOWN","mechanisms":[]},"SXT":{"name":"SXT","state":"UNKNOWN","mechanisms":[]},"TCY":{"name":"TCY","state":"UNKNOWN","mechanisms":[]},"AZM":{"name":"AZM","state":"UNKNOWN","mechanisms":[]},"SIL":{"name":"SIL","state":"UNKNOWN","mechanisms":[]}},"paar":[],"snp":[]}}},"90370_007898":{"id":"90370_007898","name":"007898_H58","metadata":{"assemblyId":"90370_007898","speciesId":"90370","assemblyName":"007898_H58","date":{"year":"2010"},"position":{"latitude":"12.565679","longitude":"104.990963"},"pmid":"25961941","userDefined":{"country":"Cambodia","accuracy":"1","genotype":"4.3.0","strain":"7898","source":"Blood","accession":"ERR319432","study accession":"ERP001718","sanger lane":"9870_8#31"},"metrics":{"totalNumberOfContigs":1,"assemblyN50Data":{"sequenceNumber":1,"sum":4793925,"sequenceLength":4793925},"contigN50":4793925,"sumsOfNucleotidesInDnaStrings":[4793925],"totalNumberOfNucleotidesInDnaStrings":4793925,"totalNumberOfNsInDnaStrings":0,"averageNumberOfNucleotidesInDnaStrings":4793925,"smallestNumberOfNucleotidesInDnaStrings":4793925,"biggestNumberOfNucleotidesInDnaStrings":4793925,"gcContent":"52.1"}},"analysis":{"populationSubtype":null,"st":"1","mlst":"1_1_1_1_1_1_5","core":{"size":3916,"percentMatched":100,"percentAssemblyMatched":75.2},"resistanceProfile":{"antibiotics":{"AMP":{"name":"AMP","state":"UNKNOWN","mechanisms":[]},"CEP":{"name":"CEP","state":"UNKNOWN","mechanisms":[]},"CHL":{"name":"CHL","state":"UNKNOWN","mechanisms":[]},"CIP":{"name":"CIP","state":"RESISTANT","mechanisms":["gyrA_S83F"]},"NAL":{"name":"NAL","state":"RESISTANT","mechanisms":["gyrA_S83F"]},"SMX":{"name":"SMX","state":"UNKNOWN","mechanisms":[]},"TMP":{"name":"TMP","state":"UNKNOWN","mechanisms":[]},"SXT":{"name":"SXT","state":"UNKNOWN","mechanisms":[]},"TCY":{"name":"TCY","state":"UNKNOWN","mechanisms":[]},"AZM":{"name":"AZM","state":"UNKNOWN","mechanisms":[]},"SIL":{"name":"SIL","state":"UNKNOWN","mechanisms":[]}},"paar":[],"snp":["gyrA_S83F"]}}},"90370_H12ESR00394-001A":{"id":"90370_H12ESR00394-001A","name":"H12ESR00394-001A","metadata":{"assemblyId":"90370_H12ESR00394-001A","speciesId":"90370","assemblyName":"H12ESR00394-001A","date":{"year":"2012"},"position":{"latitude":"-13.759029","longitude":"-172.104629"},"pmid":"25961941","userDefined":{"country":"Samoa","accuracy":"1","genotype":"3.5.4","strain":"H12ESR00394-001A","source":"Blood","accession":"ERR357605","study accession":"ERP001718","sanger lane":"10561_2#30"},"metrics":{"totalNumberOfContigs":1,"assemblyN50Data":{"sequenceNumber":1,"sum":4808147,"sequenceLength":4808147},"contigN50":4808147,"sumsOfNucleotidesInDnaStrings":[4808147],"totalNumberOfNucleotidesInDnaStrings":4808147,"totalNumberOfNsInDnaStrings":0,"averageNumberOfNucleotidesInDnaStrings":4808147,"smallestNumberOfNucleotidesInDnaStrings":4808147,"biggestNumberOfNucleotidesInDnaStrings":4808147,"gcContent":"52.1"}},"analysis":{"populationSubtype":null,"st":"1","mlst":"1_1_1_1_1_1_5","core":{"size":3918,"percentMatched":100,"percentAssemblyMatched":75},"resistanceProfile":{"antibiotics":{"AMP":{"name":"AMP","state":"UNKNOWN","mechanisms":[]},"CEP":{"name":"CEP","state":"UNKNOWN","mechanisms":[]},"CHL":{"name":"CHL","state":"UNKNOWN","mechanisms":[]},"CIP":{"name":"CIP","state":"UNKNOWN","mechanisms":[]},"NAL":{"name":"NAL","state":"UNKNOWN","mechanisms":[]},"SMX":{"name":"SMX","state":"UNKNOWN","mechanisms":[]},"TMP":{"name":"TMP","state":"UNKNOWN","mechanisms":[]},"SXT":{"name":"SXT","state":"UNKNOWN","mechanisms":[]},"TCY":{"name":"TCY","state":"UNKNOWN","mechanisms":[]},"AZM":{"name":"AZM","state":"UNKNOWN","mechanisms":[]},"SIL":{"name":"SIL","state":"UNKNOWN","mechanisms":[]}},"paar":[],"snp":[]}}},"90370_D50739":{"id":"90370_D50739","name":"D50739","metadata":{"assemblyId":"90370_D50739","speciesId":"90370","assemblyName":"D50739","date":{"year":"2009"},"position":{"latitude":"-13.254308","longitude":"34.301525"},"pmid":"25961941","userDefined":{"country":"Malawi","accuracy":"1","genotype":"2.4.1","strain":"D50739","source":"Blood","accession":"ERR279161","study accession":"ERP001718","sanger lane":"9475_6#64"},"metrics":{"totalNumberOfContigs":45,"assemblyN50Data":{"sequenceNumber":8,"sum":2407470,"sequenceLength":206289},"contigN50":206289,"sumsOfNucleotidesInDnaStrings":[518138,984514,1240828,1491161,1740688,1983325,2201181,2407470,2611821,2774852,2928607,3080093,3229441,3376763,3521582,3666323,3801773,3919358,4017344,4110168,4175242,4238367,4299049,4355477,4399349,4442740,4485620,4524721,4557850,4588739,4615046,4637433,4657655,4670038,4678629,4685777,4692445,4695589,4698290,4700079,4701539,4702662,4703197,4703723,4704071],"totalNumberOfNucleotidesInDnaStrings":4704071,"totalNumberOfNsInDnaStrings":24,"averageNumberOfNucleotidesInDnaStrings":104534,"smallestNumberOfNucleotidesInDnaStrings":348,"biggestNumberOfNucleotidesInDnaStrings":518138,"gcContent":"52.1"}},"analysis":{"populationSubtype":null,"st":"2","mlst":"1_1_2_1_1_1_5","core":{"size":3916,"percentMatched":100,"percentAssemblyMatched":76.6},"resistanceProfile":{"antibiotics":{"AMP":{"name":"AMP","state":"UNKNOWN","mechanisms":[]},"CEP":{"name":"CEP","state":"UNKNOWN","mechanisms":[]},"CHL":{"name":"CHL","state":"UNKNOWN","mechanisms":[]},"CIP":{"name":"CIP","state":"UNKNOWN","mechanisms":[]},"NAL":{"name":"NAL","state":"UNKNOWN","mechanisms":[]},"SMX":{"name":"SMX","state":"UNKNOWN","mechanisms":[]},"TMP":{"name":"TMP","state":"UNKNOWN","mechanisms":[]},"SXT":{"name":"SXT","state":"UNKNOWN","mechanisms":[]},"TCY":{"name":"TCY","state":"UNKNOWN","mechanisms":[]},"AZM":{"name":"AZM","state":"UNKNOWN","mechanisms":[]},"SIL":{"name":"SIL","state":"UNKNOWN","mechanisms":[]}},"paar":[],"snp":[]}}}},"tree":"(((((((90370_D50739:125.46875,90370_E98-0664_66:101.53125):13.09863281,(90370_11909_3:135.2558594,90370_ERL024120:163.7441406):4.901367188):0.9763183594,(((((((90370_007898:81.26442308,90370_Ty2:63.73557692):1.138020833,90370_ERL072973:45.86197917):19.609375,90370_H12ESR00394-001A:81.390625):12.02170139,90370_H12ESR00755-001A:95.22829861):3.508300781,90370_LNT1148:76.17919922):9.040690104,90370_404Ty:101.2718099):1.108789063,(90370_ERL041834:75.94866071,90370_CT18:155.0513393):5.930273438):29.15454102):1.633056641,(90370_10060_6_51:107.5666667,90370_10541_1_64:121.4333333):31.53564453):28.46435547,90370_M326:145.1785714):22.57142857,(90370_E02-1180:167.8529412,90370_E00-7866:174.1470588):76.3125):48.86397059,90370_76-1292:299.3235294);"}
