{"lastUpdatedAt":"2017-03-30T18:12:42.259Z","lastAccessedAt":"2017-03-30T18:11:39.881Z","createdAt":"2017-03-30T18:11:39.881Z","description":"","size":1,"organismId":"90370","title":"","uuid":"aog90v5yykxf","subtrees":[{"_id":"58dd4a9a8fab750001b17af2","totalPublic":0,"totalCollection":1,"name":"90370_404Ty"}],"status":"READY","public":true,"progress":{"completed":"2017-03-30T18:12:42.255Z","started":"2017-03-30T18:11:39.877Z","errors":[]},"binned":false,"id":"58dd4a5b706ea2000104bdce","organism":{"deployed":"2017-03-30T17:39:29.418Z","taxId":"90370","tree":"(((((((90370_D50739:125.46875,90370_E98-0664_66:101.53125):13.09863281,(90370_11909_3:136.2558594,90370_ERL024120:163.7441406):4.901367188):0.9763183594,(((((((90370_007898:81.26442308,90370_Ty2:63.73557692):1.138020833,90370_ERL072973:45.86197917):19.609375,90370_H12ESR00394-001A:81.390625):12.02170139,90370_H12ESR00755-001A:95.22829861):3.508300781,90370_LNT1148:76.17919922):9.040690104,90370_404Ty:101.2718099):1.108789063,(90370_ERL041834:75.94866071,90370_CT18:188.0513393):5.930273438):29.15454102):1.633056641,(90370_UI4692:107.5666667,90370_ST1921-06:121.4333333):31.53564453):28.46435547,90370_M326:145.1785714):22.57142857,(90370_E02-1180:167.8529412,90370_E00-7866:174.1470588):76.3125):36.19125279,90370_76-1292:311.9962472);","resistance":{"antibiotics":[{"key":"AMP","antimicrobialClass":"Beta-lactam","fullName":"Ampicillin"},{"key":"CEP","antimicrobialClass":"Beta-lactam","fullName":"Broad-Spectrum Cephalosporins"},{"key":"CHL","antimicrobialClass":"Phenicols","fullName":"Chloramphenicol"},{"key":"CIP","antimicrobialClass":"Fluoroquinolones","fullName":"Ciprofloxacin"},{"key":"NAL","antimicrobialClass":"Fluoroquinolones","fullName":"Nalidixic acid"},{"key":"SMX","antimicrobialClass":"Sulfonamides","fullName":"Sulfonamides"},{"key":"TMP","antimicrobialClass":"Diaminopyrimidine","fullName":"Trimethoprim"},{"key":"SXT","antimicrobialClass":"Combination","fullName":"Co-trimoxazole"},{"key":"TCY","antimicrobialClass":"Tetracyclines","fullName":"Tetracycline"},{"key":"AZM","antimicrobialClass":"Macrolides","fullName":"Azithromycin"},{"key":"SIL","antimicrobialClass":"Silent","fullName":"Silent"}],"paar":{"AZM":[{"element":"ereA","effect":"RESISTANT"},{"element":"ereB","effect":"RESISTANT"},{"element":"ermA","effect":"RESISTANT"},{"element":"ermB","effect":"RESISTANT"},{"element":"ermC","effect":"RESISTANT"},{"element":"mefA","effect":"RESISTANT"},{"element":"mphA","effect":"RESISTANT"},{"element":"mphB","effect":"RESISTANT"},{"element":"msrA","effect":"RESISTANT"},{"element":"msrD","effect":"RESISTANT"}],"TMP":[{"element":"dfrA1","effect":"RESISTANT"},{"element":"dfrA5","effect":"RESISTANT"},{"element":"dfrA7","effect":"RESISTANT"},{"element":"dfrA14","effect":"RESISTANT"},{"element":"dfrA18","effect":"RESISTANT"}],"CEP":[{"element":"CMY-2","effect":"RESISTANT"},{"element":"CTX-M-15","effect":"RESISTANT"},{"element":"SHV-12","effect":"RESISTANT"},{"element":"beta-lactamase_class-C","effect":"RESISTANT"}],"CHL":[{"element":"catA1","effect":"RESISTANT"},{"element":"catQ","effect":"RESISTANT"},{"element":"cmlA","effect":"RESISTANT"}],"SMX":[{"element":"sul1","effect":"RESISTANT"},{"element":"sul2","effect":"RESISTANT"}],"CIP":[{"element":"aac6-Ib-cr","effect":"RESISTANT"},{"element":"qnr-S","effect":"RESISTANT"},{"element":"qnrA","effect":"RESISTANT"},{"element":"qnrB","effect":"RESISTANT"},{"element":"qnrD","effect":"RESISTANT"}],"TCY":[{"element":"tetA(A)","effect":"RESISTANT"},{"element":"tetA(B)","effect":"RESISTANT"},{"element":"tetA(C)","effect":"RESISTANT"},{"element":"tetA(D)","effect":"RESISTANT"}],"AMP":[{"element":"OXA-1","effect":"RESISTANT"},{"element":"OXA-7","effect":"RESISTANT"},{"element":"OXA-23","effect":"RESISTANT"},{"element":"TEM-1","effect":"RESISTANT"}],"SXT":[{"element":"dfrA1","effect":"RESISTANT"},{"element":"dfrA5","effect":"RESISTANT"},{"element":"dfrA7","effect":"RESISTANT"},{"element":"dfrA14","effect":"RESISTANT"},{"element":"sul1","effect":"RESISTANT"},{"element":"sul2","effect":"RESISTANT"}]},"snp":{"NAL":{"gyrA":[{"snpName":"D87A","effect":"RESISTANT"},{"snpName":"D87G","effect":"RESISTANT"},{"snpName":"D87N","effect":"RESISTANT"},{"snpName":"D87Y","effect":"RESISTANT"},{"snpName":"S83F","effect":"RESISTANT"},{"snpName":"S83Y","effect":"RESISTANT"}],"parC":[{"snpName":"E84G","effect":"RESISTANT"},{"snpName":"E84K","effect":"RESISTANT"},{"snpName":"S80I","effect":"RESISTANT"}],"parE":[{"snpName":"D420N","effect":"RESISTANT"},{"snpName":"L416F","effect":"RESISTANT"}],"gyrB":[{"snpName":"Q465L","effect":"RESISTANT"},{"snpName":"Q465R","effect":"RESISTANT"},{"snpName":"S464F","effect":"RESISTANT"},{"snpName":"S464Y","effect":"RESISTANT"}]},"CIP":{"gyrA":[{"snpName":"D87A","effect":"RESISTANT"},{"snpName":"D87G","effect":"RESISTANT"},{"snpName":"D87N","effect":"RESISTANT"},{"snpName":"D87Y","effect":"RESISTANT"},{"snpName":"S83F","effect":"RESISTANT"},{"snpName":"S83Y","effect":"RESISTANT"}],"parC":[{"snpName":"E84G","effect":"RESISTANT"},{"snpName":"E84K","effect":"RESISTANT"},{"snpName":"S80I","effect":"RESISTANT"}],"parE":[{"snpName":"D420N","effect":"RESISTANT"},{"snpName":"L416F","effect":"RESISTANT"}],"gyrB":[{"snpName":"Q465L","effect":"RESISTANT"},{"snpName":"Q465R","effect":"RESISTANT"},{"snpName":"S464F","effect":"RESISTANT"},{"snpName":"S464Y","effect":"RESISTANT"}]},"SIL":{"parE":[{"snpName":"A353V","effect":"RESISTANT"},{"snpName":"A364V","effect":"RESISTANT"},{"snpName":"E460K","effect":"RESISTANT"}],"gyrB":[{"snpName":"A574V","effect":"RESISTANT"}],"gyrA":[{"snpName":"D87V","effect":"RESISTANT"}]}}},"references":[{"metrics":{"assemblyN50Data":{"sequenceLength":4793925,"sum":4793925,"sequenceNumber":1},"sumsOfNucleotidesInDnaStrings":[4793925],"gcContent":52.1,"biggestNumberOfNucleotidesInDnaStrings":4793925,"smallestNumberOfNucleotidesInDnaStrings":4793925,"averageNumberOfNucleotidesInDnaStrings":4793925,"totalNumberOfNsInDnaStrings":0,"totalNumberOfNucleotidesInDnaStrings":4793925,"contigN50":4793925,"totalNumberOfContigs":1},"userDefined":{"sanger lane":"9870_8#31","study accession":"ERP001718","accession":"ERR319432","source":"Blood","strain":"007898","genotype":"4.3.0","accuracy":"1","country":"Cambodia"},"pmid":"25961941","country":"kh","name":"007898_ST1","fileId":"eeba2753c6e66d221a0cea323fdfa31ccdb13214","_collection":"58dd423738acf20011d6adb8","uuid":"90370_007898","analysis":{"genotyphi":{"foundLoci":68,"snps":3,"genotype":"4.3.1"},"paarsnp":{"snp":["gyrA_S83F"],"paar":[],"antibiotics":{"AMP":{"name":"AMP","state":"UNKNOWN","mechanisms":[]},"CEP":{"name":"CEP","state":"UNKNOWN","mechanisms":[]},"CHL":{"name":"CHL","state":"UNKNOWN","mechanisms":[]},"CIP":{"name":"CIP","state":"RESISTANT","mechanisms":["gyrA_S83F"]},"NAL":{"name":"NAL","state":"RESISTANT","mechanisms":["gyrA_S83F"]},"SMX":{"name":"SMX","state":"UNKNOWN","mechanisms":[]},"TMP":{"name":"TMP","state":"UNKNOWN","mechanisms":[]},"SXT":{"name":"SXT","state":"UNKNOWN","mechanisms":[]},"TCY":{"name":"TCY","state":"UNKNOWN","mechanisms":[]},"AZM":{"name":"AZM","state":"UNKNOWN","mechanisms":[]},"SIL":{"name":"SIL","state":"UNKNOWN","mechanisms":[]}}},"core":{"percentAssemblyMatched":75.2,"percentMatched":100,"size":3917},"mlst":{"code":"1_1_1_1_1_1_5","st":"1"}},"position":{"longitude":104.990963,"latitude":12.565679},"date":{"day":null,"month":null,"year":2010},"id":"58dd423738acf20011d6adb9"},{"metrics":{"assemblyN50Data":{"sequenceLength":4753305,"sum":4753305,"sequenceNumber":1},"sumsOfNucleotidesInDnaStrings":[4753305,4780011,4801058,4811824],"gcContent":52,"biggestNumberOfNucleotidesInDnaStrings":4753305,"smallestNumberOfNucleotidesInDnaStrings":10766,"averageNumberOfNucleotidesInDnaStrings":1202956,"totalNumberOfNsInDnaStrings":0,"totalNumberOfNucleotidesInDnaStrings":4811824,"contigN50":4753305,"totalNumberOfContigs":4},"userDefined":{"sanger lane":"10349_1#73","study accession":"ERP001718","accession":"ERR343321","source":"Stool","strain":"11909_3","genotype":"2.0.2","accuracy":"1","country":"Mexico"},"pmid":"25961941","country":"mx","name":"11909_3_ST2","fileId":"51430b4ccefa982754b45cb642c7ca9ac1defa35","_collection":"58dd423738acf20011d6adb8","uuid":"90370_11909_3","analysis":{"genotyphi":{"foundLoci":69,"snps":2,"genotype":"2.0.2"},"paarsnp":{"snp":["parC_E84G","gyrA_S83F"],"paar":[],"antibiotics":{"AMP":{"name":"AMP","state":"UNKNOWN","mechanisms":[]},"CEP":{"name":"CEP","state":"UNKNOWN","mechanisms":[]},"CHL":{"name":"CHL","state":"UNKNOWN","mechanisms":[]},"CIP":{"name":"CIP","state":"RESISTANT","mechanisms":["parC_E84G","gyrA_S83F"]},"NAL":{"name":"NAL","state":"RESISTANT","mechanisms":["parC_E84G","gyrA_S83F"]},"SMX":{"name":"SMX","state":"UNKNOWN","mechanisms":[]},"TMP":{"name":"TMP","state":"UNKNOWN","mechanisms":[]},"SXT":{"name":"SXT","state":"UNKNOWN","mechanisms":[]},"TCY":{"name":"TCY","state":"UNKNOWN","mechanisms":[]},"AZM":{"name":"AZM","state":"UNKNOWN","mechanisms":[]},"SIL":{"name":"SIL","state":"UNKNOWN","mechanisms":[]}}},"core":{"percentAssemblyMatched":75.1,"percentMatched":100,"size":3929},"mlst":{"code":"1_1_2_1_1_1_5","st":"2"}},"position":{"longitude":-102.552784,"latitude":23.634501},"date":{"day":null,"month":null,"year":2011},"id":"58dd423738acf20011d6adba"},{"metrics":{"assemblyN50Data":{"sequenceLength":4807711,"sum":4807711,"sequenceNumber":1},"sumsOfNucleotidesInDnaStrings":[4807711,4834426,4855938,4870654,4881265,4890679],"gcContent":52,"biggestNumberOfNucleotidesInDnaStrings":4807711,"smallestNumberOfNucleotidesInDnaStrings":9414,"averageNumberOfNucleotidesInDnaStrings":815113,"totalNumberOfNsInDnaStrings":0,"totalNumberOfNucleotidesInDnaStrings":4890679,"contigN50":4807711,"totalNumberOfContigs":6},"userDefined":{"sanger lane":"10349_1#90","study accession":"ERP001718","accession":"ERR343338","source":"Unknown","strain":"404Ty","genotype":"3.1.2","accuracy":"1","country":"Indonesia"},"pmid":"25961941","country":"id","name":"404Ty_ST2","fileId":"ba36e84dac8060e7deb4db709f6486a7747ed9cf","_collection":"58dd423738acf20011d6adb8","uuid":"90370_404Ty","analysis":{"genotyphi":{"foundLoci":68,"snps":4,"genotype":"3.1.2"},"paarsnp":{"snp":[],"paar":["tetA(B)"],"antibiotics":{"AMP":{"name":"AMP","state":"UNKNOWN","mechanisms":[]},"CEP":{"name":"CEP","state":"UNKNOWN","mechanisms":[]},"CHL":{"name":"CHL","state":"UNKNOWN","mechanisms":[]},"CIP":{"name":"CIP","state":"UNKNOWN","mechanisms":[]},"NAL":{"name":"NAL","state":"UNKNOWN","mechanisms":[]},"SMX":{"name":"SMX","state":"UNKNOWN","mechanisms":[]},"TMP":{"name":"TMP","state":"UNKNOWN","mechanisms":[]},"SXT":{"name":"SXT","state":"UNKNOWN","mechanisms":[]},"TCY":{"name":"TCY","state":"RESISTANT","mechanisms":["tetA(B)"]},"AZM":{"name":"AZM","state":"UNKNOWN","mechanisms":[]},"SIL":{"name":"SIL","state":"UNKNOWN","mechanisms":[]}}},"core":{"percentAssemblyMatched":73.7,"percentMatched":100,"size":3918},"mlst":{"code":"1_1_2_1_1_1_5","st":"2"}},"position":{"longitude":113.921327,"latitude":-0.789275},"date":{"day":null,"month":null,"year":1983},"id":"58dd423738acf20011d6adbb"},{"metrics":{"assemblyN50Data":{"sequenceLength":4780549,"sum":4780549,"sequenceNumber":1},"sumsOfNucleotidesInDnaStrings":[4780549,4925937,4934685],"gcContent":52.1,"biggestNumberOfNucleotidesInDnaStrings":4780549,"smallestNumberOfNucleotidesInDnaStrings":8748,"averageNumberOfNucleotidesInDnaStrings":1644895,"totalNumberOfNsInDnaStrings":0,"totalNumberOfNucleotidesInDnaStrings":4934685,"contigN50":4780549,"totalNumberOfContigs":3},"userDefined":{"sanger lane":"10592_2#63","study accession":"ERP001718","accession":"ERR360511","source":"Blood","strain":"76_1292","genotype":"1.1.3","accuracy":"1","country":"Democratic Republic of Congo"},"pmid":"25961941","country":"cd","name":"76_1292_ST8","fileId":"91ff718f6e28125c135e171a7478ee0c85a653c9","_collection":"58dd423738acf20011d6adb8","uuid":"90370_76-1292","analysis":{"genotyphi":{"foundLoci":68,"snps":3,"genotype":"1.1.3"},"paarsnp":{"snp":[],"paar":["sul1","catA1","OXA-1","tetA(A)"],"antibiotics":{"AMP":{"name":"AMP","state":"RESISTANT","mechanisms":["OXA-1"]},"CEP":{"name":"CEP","state":"UNKNOWN","mechanisms":[]},"CHL":{"name":"CHL","state":"RESISTANT","mechanisms":["catA1"]},"CIP":{"name":"CIP","state":"UNKNOWN","mechanisms":[]},"NAL":{"name":"NAL","state":"UNKNOWN","mechanisms":[]},"SMX":{"name":"SMX","state":"RESISTANT","mechanisms":["sul1"]},"TMP":{"name":"TMP","state":"UNKNOWN","mechanisms":[]},"SXT":{"name":"SXT","state":"UNKNOWN","mechanisms":[]},"TCY":{"name":"TCY","state":"RESISTANT","mechanisms":["tetA(A)"]},"AZM":{"name":"AZM","state":"UNKNOWN","mechanisms":[]},"SIL":{"name":"SIL","state":"UNKNOWN","mechanisms":[]}}},"core":{"percentAssemblyMatched":73.2,"percentMatched":100,"size":3924},"mlst":{"code":"1_1_2_3_1_1_5","st":"8"}},"position":{"longitude":21.758664,"latitude":-4.038333},"date":{"day":null,"month":null,"year":1976},"id":"58dd423738acf20011d6adbc"},{"metrics":{"assemblyN50Data":{"sequenceLength":4809037,"sum":4809037,"sequenceNumber":1},"sumsOfNucleotidesInDnaStrings":[4809037,5027197,5133713],"gcContent":51.9,"biggestNumberOfNucleotidesInDnaStrings":4809037,"smallestNumberOfNucleotidesInDnaStrings":106516,"averageNumberOfNucleotidesInDnaStrings":1711237,"totalNumberOfNsInDnaStrings":0,"totalNumberOfNucleotidesInDnaStrings":5133713,"contigN50":4809037,"totalNumberOfContigs":3},"userDefined":{"sanger lane":"28050_A01","study accession":"PRJNA236","accession":"AL513382.1","source":"Blood","strain":"CT18","genotype":"3.2.1","accuracy":"1","country":"Vietnam"},"pmid":"11677608","country":"vn","name":"CT18_ST2","fileId":"08da058907f7a2c26f10ef0e1c5ef65a2f21c6f0","_collection":"58dd423738acf20011d6adb8","uuid":"90370_CT18","analysis":{"genotyphi":{"foundLoci":68,"snps":2,"genotype":"3.2.1"},"paarsnp":{"snp":[],"paar":["TEM-1","dfrA14","catA1","tetA(B)","sul2"],"antibiotics":{"AMP":{"name":"AMP","state":"RESISTANT","mechanisms":["TEM-1"]},"CEP":{"name":"CEP","state":"UNKNOWN","mechanisms":[]},"CHL":{"name":"CHL","state":"RESISTANT","mechanisms":["catA1"]},"CIP":{"name":"CIP","state":"UNKNOWN","mechanisms":[]},"NAL":{"name":"NAL","state":"UNKNOWN","mechanisms":[]},"SMX":{"name":"SMX","state":"RESISTANT","mechanisms":["sul2"]},"TMP":{"name":"TMP","state":"RESISTANT","mechanisms":["dfrA14"]},"SXT":{"name":"SXT","state":"RESISTANT","mechanisms":["sul2-dfrA14"]},"TCY":{"name":"TCY","state":"RESISTANT","mechanisms":["tetA(B)"]},"AZM":{"name":"AZM","state":"UNKNOWN","mechanisms":[]},"SIL":{"name":"SIL","state":"UNKNOWN","mechanisms":[]}}},"core":{"percentAssemblyMatched":70.2,"percentMatched":100,"size":3917},"mlst":{"code":"1_1_2_1_1_1_5","st":"2"}},"position":{"longitude":108.277199,"latitude":14.058324},"date":{"day":null,"month":null,"year":1993},"id":"58dd423738acf20011d6adbd"},{"metrics":{"assemblyN50Data":{"sequenceLength":206289,"sum":2407470,"sequenceNumber":8},"sumsOfNucleotidesInDnaStrings":[518138,984514,1240828,1491161,1740688,1983325,2201181,2407470,2611821,2774852,2928607,3080093,3229441,3376763,3521582,3666323,3801773,3919358,4017344,4110168,4175242,4238367,4299049,4355477,4399349,4442740,4485620,4524721,4557850,4588739,4615046,4637433,4657655,4670038,4678629,4685777,4692445,4695589,4698290,4700079,4701539,4702662,4703197,4703723,4704071],"gcContent":52.1,"biggestNumberOfNucleotidesInDnaStrings":518138,"smallestNumberOfNucleotidesInDnaStrings":348,"averageNumberOfNucleotidesInDnaStrings":104534,"totalNumberOfNsInDnaStrings":24,"totalNumberOfNucleotidesInDnaStrings":4704071,"contigN50":206289,"totalNumberOfContigs":45},"userDefined":{"sanger lane":"9475_6#64","study accession":"ERP001718","accession":"ERR279161","source":"Blood","strain":"D50739","genotype":"2.4.1","accuracy":"1","country":"Malawi"},"pmid":"25961941","country":"mw","name":"D50739_ST2","fileId":"64202fbdc1ced9babcda73e55374a293e1b40ac4","_collection":"58dd423738acf20011d6adb8","uuid":"90370_D50739","analysis":{"genotyphi":{"foundLoci":68,"snps":3,"genotype":"2.4.1"},"paarsnp":{"snp":[],"paar":[],"antibiotics":{"AMP":{"name":"AMP","state":"UNKNOWN","mechanisms":[]},"CEP":{"name":"CEP","state":"UNKNOWN","mechanisms":[]},"CHL":{"name":"CHL","state":"UNKNOWN","mechanisms":[]},"CIP":{"name":"CIP","state":"UNKNOWN","mechanisms":[]},"NAL":{"name":"NAL","state":"UNKNOWN","mechanisms":[]},"SMX":{"name":"SMX","state":"UNKNOWN","mechanisms":[]},"TMP":{"name":"TMP","state":"UNKNOWN","mechanisms":[]},"SXT":{"name":"SXT","state":"UNKNOWN","mechanisms":[]},"TCY":{"name":"TCY","state":"UNKNOWN","mechanisms":[]},"AZM":{"name":"AZM","state":"UNKNOWN","mechanisms":[]},"SIL":{"name":"SIL","state":"UNKNOWN","mechanisms":[]}}},"core":{"percentAssemblyMatched":76.6,"percentMatched":100,"size":3917},"mlst":{"code":"1_1_2_1_1_1_5","st":"2"}},"position":{"longitude":34.301525,"latitude":-13.254308},"date":{"day":null,"month":null,"year":2009},"id":"58dd423738acf20011d6adbe"},{"metrics":{"assemblyN50Data":{"sequenceLength":4797408,"sum":4797408,"sequenceNumber":1},"sumsOfNucleotidesInDnaStrings":[4797408,4820207,4831122],"gcContent":52.1,"biggestNumberOfNucleotidesInDnaStrings":4797408,"smallestNumberOfNucleotidesInDnaStrings":10915,"averageNumberOfNucleotidesInDnaStrings":1610374,"totalNumberOfNsInDnaStrings":0,"totalNumberOfNucleotidesInDnaStrings":4831122,"contigN50":4797408,"totalNumberOfContigs":3},"userDefined":{"sanger lane":"10349_1#88","study accession":"ERP001718","accession":"ERR343336","source":"Blood","strain":"E00-7866","genotype":"0.1.0","accuracy":"1","country":"Morocco"},"pmid":"25961941","country":"ma","name":"E00-7866_ST2","fileId":"78bf32dc58c0ac81672d16a04f33ba9b0734819d","_collection":"58dd423738acf20011d6adb8","uuid":"90370_E00-7866","analysis":{"genotyphi":{"foundLoci":68,"snps":3,"genotype":"0.1"},"paarsnp":{"snp":[],"paar":[],"antibiotics":{"AMP":{"name":"AMP","state":"UNKNOWN","mechanisms":[]},"CEP":{"name":"CEP","state":"UNKNOWN","mechanisms":[]},"CHL":{"name":"CHL","state":"UNKNOWN","mechanisms":[]},"CIP":{"name":"CIP","state":"UNKNOWN","mechanisms":[]},"NAL":{"name":"NAL","state":"UNKNOWN","mechanisms":[]},"SMX":{"name":"SMX","state":"UNKNOWN","mechanisms":[]},"TMP":{"name":"TMP","state":"UNKNOWN","mechanisms":[]},"SXT":{"name":"SXT","state":"UNKNOWN","mechanisms":[]},"TCY":{"name":"TCY","state":"UNKNOWN","mechanisms":[]},"AZM":{"name":"AZM","state":"UNKNOWN","mechanisms":[]},"SIL":{"name":"SIL","state":"UNKNOWN","mechanisms":[]}}},"core":{"percentAssemblyMatched":74.6,"percentMatched":100,"size":3918},"mlst":{"code":"1_1_2_1_1_1_5","st":"2"}},"position":{"longitude":-7.09262,"latitude":31.791702},"date":{"day":null,"month":null,"year":2000},"id":"58dd423738acf20011d6adbf"},{"metrics":{"assemblyN50Data":{"sequenceLength":4793071,"sum":4793071,"sequenceNumber":1},"sumsOfNucleotidesInDnaStrings":[4793071,4811380,4828435,4838914],"gcContent":52.1,"biggestNumberOfNucleotidesInDnaStrings":4793071,"smallestNumberOfNucleotidesInDnaStrings":10479,"averageNumberOfNucleotidesInDnaStrings":1209728,"totalNumberOfNsInDnaStrings":0,"totalNumberOfNucleotidesInDnaStrings":4838914,"contigN50":4793071,"totalNumberOfContigs":4},"userDefined":{"sanger lane":"10349_1#89","study accession":"ERP001718","accession":"ERR343337","source":"Blood","strain":"E02-1180","genotype":"0.0.3","accuracy":"1","country":"India"},"pmid":"25961941","country":"in","name":"E02-1180_ST2","fileId":"1f5410df192db291c75bfac4d1d080115e8d3fe8","_collection":"58dd423738acf20011d6adb8","uuid":"90370_E02-1180","analysis":{"genotyphi":{"foundLoci":68,"snps":3,"genotype":"0.0.3"},"paarsnp":{"snp":["gyrA_D87G"],"paar":[],"antibiotics":{"AMP":{"name":"AMP","state":"UNKNOWN","mechanisms":[]},"CEP":{"name":"CEP","state":"UNKNOWN","mechanisms":[]},"CHL":{"name":"CHL","state":"UNKNOWN","mechanisms":[]},"CIP":{"name":"CIP","state":"RESISTANT","mechanisms":["gyrA_D87G"]},"NAL":{"name":"NAL","state":"RESISTANT","mechanisms":["gyrA_D87G"]},"SMX":{"name":"SMX","state":"UNKNOWN","mechanisms":[]},"TMP":{"name":"TMP","state":"UNKNOWN","mechanisms":[]},"SXT":{"name":"SXT","state":"UNKNOWN","mechanisms":[]},"TCY":{"name":"TCY","state":"UNKNOWN","mechanisms":[]},"AZM":{"name":"AZM","state":"UNKNOWN","mechanisms":[]},"SIL":{"name":"SIL","state":"UNKNOWN","mechanisms":[]}}},"core":{"percentAssemblyMatched":74.6,"percentMatched":100,"size":3923},"mlst":{"code":"1_1_2_1_1_1_5","st":"2"}},"position":{"longitude":78.96288,"latitude":20.593684},"date":{"day":null,"month":null,"year":2002},"id":"58dd423738acf20011d6adc0"},{"metrics":{"assemblyN50Data":{"sequenceLength":4752533,"sum":4752533,"sequenceNumber":1},"sumsOfNucleotidesInDnaStrings":[4752533,4761421,4764488],"gcContent":52.1,"biggestNumberOfNucleotidesInDnaStrings":4752533,"smallestNumberOfNucleotidesInDnaStrings":3067,"averageNumberOfNucleotidesInDnaStrings":1588162,"totalNumberOfNsInDnaStrings":0,"totalNumberOfNucleotidesInDnaStrings":4764488,"contigN50":4752533,"totalNumberOfContigs":3},"userDefined":{"sanger lane":"10349_1#86","study accession":"ERP001718","accession":"ERR343334","source":"Unknown","strain":"E98-0664","genotype":"2.5.0","accuracy":"1","country":"Kenya"},"pmid":"25961941","country":"ke","name":"E98-0664_66_ST2","fileId":"c74aeb37a351f1d19afb8c61d0e64d82dde59e25","_collection":"58dd423738acf20011d6adb8","uuid":"90370_E98-0664_66","analysis":{"genotyphi":{"foundLoci":68,"snps":2,"genotype":"2.5"},"paarsnp":{"snp":[],"paar":[],"antibiotics":{"AMP":{"name":"AMP","state":"UNKNOWN","mechanisms":[]},"CEP":{"name":"CEP","state":"UNKNOWN","mechanisms":[]},"CHL":{"name":"CHL","state":"UNKNOWN","mechanisms":[]},"CIP":{"name":"CIP","state":"UNKNOWN","mechanisms":[]},"NAL":{"name":"NAL","state":"UNKNOWN","mechanisms":[]},"SMX":{"name":"SMX","state":"UNKNOWN","mechanisms":[]},"TMP":{"name":"TMP","state":"UNKNOWN","mechanisms":[]},"SXT":{"name":"SXT","state":"UNKNOWN","mechanisms":[]},"TCY":{"name":"TCY","state":"UNKNOWN","mechanisms":[]},"AZM":{"name":"AZM","state":"UNKNOWN","mechanisms":[]},"SIL":{"name":"SIL","state":"UNKNOWN","mechanisms":[]}}},"core":{"percentAssemblyMatched":75.7,"percentMatched":100,"size":3918},"mlst":{"code":"1_1_2_1_1_1_5","st":"2"}},"position":{"longitude":37.906193,"latitude":-0.023559},"date":{"day":null,"month":null,"year":1998},"id":"58dd423738acf20011d6adc1"},{"metrics":{"assemblyN50Data":{"sequenceLength":4811886,"sum":4811886,"sequenceNumber":1},"sumsOfNucleotidesInDnaStrings":[4811886],"gcContent":52.1,"biggestNumberOfNucleotidesInDnaStrings":4811886,"smallestNumberOfNucleotidesInDnaStrings":4811886,"averageNumberOfNucleotidesInDnaStrings":4811886,"totalNumberOfNsInDnaStrings":0,"totalNumberOfNucleotidesInDnaStrings":4811886,"contigN50":4811886,"totalNumberOfContigs":1},"userDefined":{"sanger lane":"10349_1#4","study accession":"ERP001718","accession":"ERR343252","source":"Stool","strain":"ERL024120","genotype":"2.1.2","accuracy":"1","country":"Indonesia"},"pmid":"25961941","country":"id","name":"ERL024120_ST2138","fileId":"353f487cb88ddd840aaf8ef0166826633e742b0e","_collection":"58dd423738acf20011d6adb8","uuid":"90370_ERL024120","analysis":{"genotyphi":{"foundLoci":68,"snps":3,"genotype":"2.1.2"},"paarsnp":{"snp":[],"paar":[],"antibiotics":{"AMP":{"name":"AMP","state":"UNKNOWN","mechanisms":[]},"CEP":{"name":"CEP","state":"UNKNOWN","mechanisms":[]},"CHL":{"name":"CHL","state":"UNKNOWN","mechanisms":[]},"CIP":{"name":"CIP","state":"UNKNOWN","mechanisms":[]},"NAL":{"name":"NAL","state":"UNKNOWN","mechanisms":[]},"SMX":{"name":"SMX","state":"UNKNOWN","mechanisms":[]},"TMP":{"name":"TMP","state":"UNKNOWN","mechanisms":[]},"SXT":{"name":"SXT","state":"UNKNOWN","mechanisms":[]},"TCY":{"name":"TCY","state":"UNKNOWN","mechanisms":[]},"AZM":{"name":"AZM","state":"UNKNOWN","mechanisms":[]},"SIL":{"name":"SIL","state":"UNKNOWN","mechanisms":[]}}},"core":{"percentAssemblyMatched":75,"percentMatched":100,"size":3920},"mlst":{"code":"1_465_2_1_1_1_5","st":"2138"}},"position":{"longitude":113.921327,"latitude":-0.789275},"date":{"day":null,"month":null,"year":2002},"id":"58dd423738acf20011d6adc2"},{"metrics":{"assemblyN50Data":{"sequenceLength":4675147,"sum":4675147,"sequenceNumber":1},"sumsOfNucleotidesInDnaStrings":[4675147,4832212,4853812,4873450,4892436],"gcContent":52.1,"biggestNumberOfNucleotidesInDnaStrings":4675147,"smallestNumberOfNucleotidesInDnaStrings":18986,"averageNumberOfNucleotidesInDnaStrings":978487,"totalNumberOfNsInDnaStrings":0,"totalNumberOfNucleotidesInDnaStrings":4892436,"contigN50":4675147,"totalNumberOfContigs":5},"userDefined":{"sanger lane":"10349_1#16","study accession":"ERP001718","accession":"ERR343264","source":"Stool","strain":"ERL041834","genotype":"3.3.0","accuracy":"1","country":"India"},"pmid":"25961941","country":"in","name":"ERL041834_ST2","fileId":"206a179d9ba60b99bea5735ea486d2b3706bd634","_collection":"58dd423738acf20011d6adb8","uuid":"90370_ERL041834","analysis":{"genotyphi":{"foundLoci":68,"snps":3,"genotype":"3.3"},"paarsnp":{"snp":["parE_A364V"],"paar":[],"antibiotics":{"AMP":{"name":"AMP","state":"UNKNOWN","mechanisms":[]},"CEP":{"name":"CEP","state":"UNKNOWN","mechanisms":[]},"CHL":{"name":"CHL","state":"UNKNOWN","mechanisms":[]},"CIP":{"name":"CIP","state":"UNKNOWN","mechanisms":[]},"NAL":{"name":"NAL","state":"UNKNOWN","mechanisms":[]},"SMX":{"name":"SMX","state":"UNKNOWN","mechanisms":[]},"TMP":{"name":"TMP","state":"UNKNOWN","mechanisms":[]},"SXT":{"name":"SXT","state":"UNKNOWN","mechanisms":[]},"TCY":{"name":"TCY","state":"UNKNOWN","mechanisms":[]},"AZM":{"name":"AZM","state":"UNKNOWN","mechanisms":[]},"SIL":{"name":"SIL","state":"RESISTANT","mechanisms":["parE_A364V"]}}},"core":{"percentAssemblyMatched":73.9,"percentMatched":100,"size":3927},"mlst":{"code":"1_1_2_1_1_1_5","st":"2"}},"position":{"longitude":78.96288,"latitude":20.593684},"date":{"day":null,"month":null,"year":2004},"id":"58dd423738acf20011d6adc3"},{"metrics":{"assemblyN50Data":{"sequenceLength":4789877,"sum":4789877,"sequenceNumber":1},"sumsOfNucleotidesInDnaStrings":[4789877,4806043],"gcContent":52.1,"biggestNumberOfNucleotidesInDnaStrings":4789877,"smallestNumberOfNucleotidesInDnaStrings":16166,"averageNumberOfNucleotidesInDnaStrings":2403021,"totalNumberOfNsInDnaStrings":0,"totalNumberOfNucleotidesInDnaStrings":4806043,"contigN50":4789877,"totalNumberOfContigs":2},"userDefined":{"sanger lane":"10349_1#31","study accession":"ERP001718","accession":"ERR343279","source":"Blood","strain":"ERL072973","genotype":"4.2.2","accuracy":"1","country":"Fiji"},"pmid":"25961941","country":"fj","name":"ERL072973_ST1","fileId":"495c1b08ca435925f3d31711835ad1c67f1a137d","_collection":"58dd423738acf20011d6adb8","uuid":"90370_ERL072973","analysis":{"genotyphi":{"foundLoci":68,"snps":4,"genotype":"4.2.2"},"paarsnp":{"snp":[],"paar":[],"antibiotics":{"AMP":{"name":"AMP","state":"UNKNOWN","mechanisms":[]},"CEP":{"name":"CEP","state":"UNKNOWN","mechanisms":[]},"CHL":{"name":"CHL","state":"UNKNOWN","mechanisms":[]},"CIP":{"name":"CIP","state":"UNKNOWN","mechanisms":[]},"NAL":{"name":"NAL","state":"UNKNOWN","mechanisms":[]},"SMX":{"name":"SMX","state":"UNKNOWN","mechanisms":[]},"TMP":{"name":"TMP","state":"UNKNOWN","mechanisms":[]},"SXT":{"name":"SXT","state":"UNKNOWN","mechanisms":[]},"TCY":{"name":"TCY","state":"UNKNOWN","mechanisms":[]},"AZM":{"name":"AZM","state":"UNKNOWN","mechanisms":[]},"SIL":{"name":"SIL","state":"UNKNOWN","mechanisms":[]}}},"core":{"percentAssemblyMatched":75.1,"percentMatched":100,"size":3921},"mlst":{"code":"1_1_1_1_1_1_5","st":"1"}},"position":{"longitude":178.065032,"latitude":-17.713371},"date":{"day":null,"month":null,"year":2007},"id":"58dd423738acf20011d6adc4"},{"metrics":{"assemblyN50Data":{"sequenceLength":4808147,"sum":4808147,"sequenceNumber":1},"sumsOfNucleotidesInDnaStrings":[4808147],"gcContent":52.1,"biggestNumberOfNucleotidesInDnaStrings":4808147,"smallestNumberOfNucleotidesInDnaStrings":4808147,"averageNumberOfNucleotidesInDnaStrings":4808147,"totalNumberOfNsInDnaStrings":0,"totalNumberOfNucleotidesInDnaStrings":4808147,"contigN50":4808147,"totalNumberOfContigs":1},"userDefined":{"sanger lane":"10561_2#30","study accession":"ERP001718","accession":"ERR357605","source":"Blood","strain":"H12ESR00394-001A","genotype":"3.5.4","accuracy":"1","country":"Samoa"},"pmid":"25961941","country":"ws","name":"H12ESR00394-001A_ST1","fileId":"628de425d7ccb1c3fb0968a473e6f38f271b8f9e","_collection":"58dd423738acf20011d6adb8","uuid":"90370_H12ESR00394-001A","analysis":{"genotyphi":{"foundLoci":68,"snps":4,"genotype":"3.5.4"},"paarsnp":{"snp":[],"paar":[],"antibiotics":{"AMP":{"name":"AMP","state":"UNKNOWN","mechanisms":[]},"CEP":{"name":"CEP","state":"UNKNOWN","mechanisms":[]},"CHL":{"name":"CHL","state":"UNKNOWN","mechanisms":[]},"CIP":{"name":"CIP","state":"UNKNOWN","mechanisms":[]},"NAL":{"name":"NAL","state":"UNKNOWN","mechanisms":[]},"SMX":{"name":"SMX","state":"UNKNOWN","mechanisms":[]},"TMP":{"name":"TMP","state":"UNKNOWN","mechanisms":[]},"SXT":{"name":"SXT","state":"UNKNOWN","mechanisms":[]},"TCY":{"name":"TCY","state":"UNKNOWN","mechanisms":[]},"AZM":{"name":"AZM","state":"UNKNOWN","mechanisms":[]},"SIL":{"name":"SIL","state":"UNKNOWN","mechanisms":[]}}},"core":{"percentAssemblyMatched":75,"percentMatched":100,"size":3919},"mlst":{"code":"1_1_1_1_1_1_5","st":"1"}},"position":{"longitude":-172.104629,"latitude":-13.759029},"date":{"day":null,"month":null,"year":2012},"id":"58dd423738acf20011d6adc5"},{"metrics":{"assemblyN50Data":{"sequenceLength":4802146,"sum":4802146,"sequenceNumber":1},"sumsOfNucleotidesInDnaStrings":[4802146,4814227],"gcContent":52.1,"biggestNumberOfNucleotidesInDnaStrings":4802146,"smallestNumberOfNucleotidesInDnaStrings":12081,"averageNumberOfNucleotidesInDnaStrings":2407113,"totalNumberOfNsInDnaStrings":0,"totalNumberOfNucleotidesInDnaStrings":4814227,"contigN50":4802146,"totalNumberOfContigs":2},"userDefined":{"sanger lane":"10349_1#80","study accession":"ERP001718","accession":"ERR343328","source":"Blood","strain":"H12ESR00755-001A","genotype":"3.0.0","accuracy":"1","country":"Phillipines"},"pmid":"25961941","country":"ph","name":"H12ESR00755-001A_ST1","fileId":"19a5c66fedc8532d11bdad445e04d7fc6d7e9a31","_collection":"58dd423738acf20011d6adb8","uuid":"90370_H12ESR00755-001A","analysis":{"genotyphi":{"foundLoci":68,"snps":2,"genotype":"3"},"paarsnp":{"snp":[],"paar":[],"antibiotics":{"AMP":{"name":"AMP","state":"UNKNOWN","mechanisms":[]},"CEP":{"name":"CEP","state":"UNKNOWN","mechanisms":[]},"CHL":{"name":"CHL","state":"UNKNOWN","mechanisms":[]},"CIP":{"name":"CIP","state":"UNKNOWN","mechanisms":[]},"NAL":{"name":"NAL","state":"UNKNOWN","mechanisms":[]},"SMX":{"name":"SMX","state":"UNKNOWN","mechanisms":[]},"TMP":{"name":"TMP","state":"UNKNOWN","mechanisms":[]},"SXT":{"name":"SXT","state":"UNKNOWN","mechanisms":[]},"TCY":{"name":"TCY","state":"UNKNOWN","mechanisms":[]},"AZM":{"name":"AZM","state":"UNKNOWN","mechanisms":[]},"SIL":{"name":"SIL","state":"UNKNOWN","mechanisms":[]}}},"core":{"percentAssemblyMatched":74.9,"percentMatched":100,"size":3920},"mlst":{"code":"1_1_1_1_1_1_5","st":"1"}},"position":{"longitude":121.774017,"latitude":12.879721},"date":{"day":null,"month":null,"year":2012},"id":"58dd423738acf20011d6adc6"},{"metrics":{"assemblyN50Data":{"sequenceLength":204320,"sum":2419529,"sequenceNumber":9},"sumsOfNucleotidesInDnaStrings":[508778,806524,1069387,1319709,1569243,1791211,2008893,2215209,2419529,2605620,2777603,2940413,3096591,3250312,3399694,3544480,3688043,3801575,3899561,3991784,4072819,4153830,4218573,4281655,4342902,4401397,4457640,4503566,4547464,4580626,4612269,4643226,4669806,4692151,4704534,4713125,4720237,4726940,4731341,4735189,4738578,4741311,4742030,4742593,4743132,4743503],"gcContent":52.1,"biggestNumberOfNucleotidesInDnaStrings":508778,"smallestNumberOfNucleotidesInDnaStrings":371,"averageNumberOfNucleotidesInDnaStrings":103119,"totalNumberOfNsInDnaStrings":2,"totalNumberOfNucleotidesInDnaStrings":4743503,"contigN50":204320,"totalNumberOfContigs":46},"userDefined":{"sanger lane":"10209_5#23","study accession":"ERP001718","accession":"ERR340779","source":"Blood","strain":"LNT1148","genotype":"3.4.0","accuracy":"1","country":"Laos"},"pmid":"25961941","country":"la","name":"LNT1148_ST1","fileId":"1700e1b91ebf7161df0de5eaf18bced0eca891a6","_collection":"58dd423738acf20011d6adb8","uuid":"90370_LNT1148","analysis":{"genotyphi":{"foundLoci":68,"snps":3,"genotype":"3.4"},"paarsnp":{"snp":[],"paar":[],"antibiotics":{"AMP":{"name":"AMP","state":"UNKNOWN","mechanisms":[]},"CEP":{"name":"CEP","state":"UNKNOWN","mechanisms":[]},"CHL":{"name":"CHL","state":"UNKNOWN","mechanisms":[]},"CIP":{"name":"CIP","state":"UNKNOWN","mechanisms":[]},"NAL":{"name":"NAL","state":"UNKNOWN","mechanisms":[]},"SMX":{"name":"SMX","state":"UNKNOWN","mechanisms":[]},"TMP":{"name":"TMP","state":"UNKNOWN","mechanisms":[]},"SXT":{"name":"SXT","state":"UNKNOWN","mechanisms":[]},"TCY":{"name":"TCY","state":"UNKNOWN","mechanisms":[]},"AZM":{"name":"AZM","state":"UNKNOWN","mechanisms":[]},"SIL":{"name":"SIL","state":"UNKNOWN","mechanisms":[]}}},"core":{"percentAssemblyMatched":76,"percentMatched":100,"size":3918},"mlst":{"code":"1_1_1_1_1_1_5","st":"1"}},"position":{"longitude":102.495496,"latitude":19.85627},"date":{"day":null,"month":null,"year":2001},"id":"58dd423738acf20011d6adc7"},{"metrics":{"assemblyN50Data":{"sequenceLength":204340,"sum":2513576,"sequenceNumber":9},"sumsOfNucleotidesInDnaStrings":[466384,801637,1126875,1390459,1640658,1886135,2102934,2309236,2513576,2699405,2871643,3033883,3187455,3336830,3484416,3629186,3764726,3894537,3992523,4085104,4166002,4230757,4293839,4354521,4410763,4461285,4505175,4548040,4581196,4613139,4644096,4670418,4692763,4712996,4725379,4733970,4741082,4747762,4754061,4758768,4763267,4767223,4770357,4773090,4774826,4775208,4775555],"gcContent":52,"biggestNumberOfNucleotidesInDnaStrings":466384,"smallestNumberOfNucleotidesInDnaStrings":347,"averageNumberOfNucleotidesInDnaStrings":101607,"totalNumberOfNsInDnaStrings":8,"totalNumberOfNucleotidesInDnaStrings":4775555,"contigN50":204340,"totalNumberOfContigs":47},"userDefined":{"sanger lane":"9471_7#42","study accession":"PRJEB3255","accession":"ERS203153","source":"Unknown","strain":"Craigie F 1","genotype":"1.2.1","accuracy":"","country":"Unknown"},"pmid":"26411565","country":null,"name":"M326_ST2","fileId":"05a02588ff9f79b552582bc9f7c14d626e35dbe5","_collection":"58dd423738acf20011d6adb8","uuid":"90370_M326","analysis":{"genotyphi":{"foundLoci":68,"snps":3,"genotype":"1.2.1"},"paarsnp":{"snp":[],"paar":[],"antibiotics":{"AMP":{"name":"AMP","state":"UNKNOWN","mechanisms":[]},"CEP":{"name":"CEP","state":"UNKNOWN","mechanisms":[]},"CHL":{"name":"CHL","state":"UNKNOWN","mechanisms":[]},"CIP":{"name":"CIP","state":"UNKNOWN","mechanisms":[]},"NAL":{"name":"NAL","state":"UNKNOWN","mechanisms":[]},"SMX":{"name":"SMX","state":"UNKNOWN","mechanisms":[]},"TMP":{"name":"TMP","state":"UNKNOWN","mechanisms":[]},"SXT":{"name":"SXT","state":"UNKNOWN","mechanisms":[]},"TCY":{"name":"TCY","state":"UNKNOWN","mechanisms":[]},"AZM":{"name":"AZM","state":"UNKNOWN","mechanisms":[]},"SIL":{"name":"SIL","state":"UNKNOWN","mechanisms":[]}}},"core":{"percentAssemblyMatched":75.4,"percentMatched":100,"size":3916},"mlst":{"code":"1_1_2_1_1_1_5","st":"2"}},"position":{"longitude":null,"latitude":null},"date":{"day":null,"month":null,"year":1939},"id":"58dd423738acf20011d6adc8"},{"metrics":{"assemblyN50Data":{"sequenceLength":204238,"sum":2560530,"sequenceNumber":9},"sumsOfNucleotidesInDnaStrings":[466411,859542,1190912,1443632,1693230,1932340,2150014,2356292,2560530,2745947,2917943,3080946,3234697,3384051,3531313,3676106,3811699,3929123,4027054,4119639,4206744,4269806,4330478,4386697,4430574,4473879,4507491,4540673,4571631,4601961,4628257,4650602,4670801,4683280,4691809,4699017,4705699,4710198,4714020,4716754,4717473,4718006],"gcContent":52.1,"biggestNumberOfNucleotidesInDnaStrings":466411,"smallestNumberOfNucleotidesInDnaStrings":533,"averageNumberOfNucleotidesInDnaStrings":112333,"totalNumberOfNsInDnaStrings":0,"totalNumberOfNucleotidesInDnaStrings":4718006,"contigN50":204238,"totalNumberOfContigs":42},"userDefined":{"sanger lane":"10541_1#64","study accession":"ERP001718","accession":"ERR353335","source":"Stool","strain":"ST1921/06","genotype":"2.3.3","accuracy":"1","country":"Argentina"},"pmid":"25961941","country":"ar","name":"ST1921-06_ST2","fileId":"0f7e1308d0b3b6f3104a157a6c62227040138089","_collection":"58dd423738acf20011d6adb8","uuid":"90370_ST1921-06","analysis":{"genotyphi":{"foundLoci":68,"snps":3,"genotype":"2.3.3"},"paarsnp":{"snp":[],"paar":[],"antibiotics":{"AMP":{"name":"AMP","state":"UNKNOWN","mechanisms":[]},"CEP":{"name":"CEP","state":"UNKNOWN","mechanisms":[]},"CHL":{"name":"CHL","state":"UNKNOWN","mechanisms":[]},"CIP":{"name":"CIP","state":"UNKNOWN","mechanisms":[]},"NAL":{"name":"NAL","state":"UNKNOWN","mechanisms":[]},"SMX":{"name":"SMX","state":"UNKNOWN","mechanisms":[]},"TMP":{"name":"TMP","state":"UNKNOWN","mechanisms":[]},"SXT":{"name":"SXT","state":"UNKNOWN","mechanisms":[]},"TCY":{"name":"TCY","state":"UNKNOWN","mechanisms":[]},"AZM":{"name":"AZM","state":"UNKNOWN","mechanisms":[]},"SIL":{"name":"SIL","state":"UNKNOWN","mechanisms":[]}}},"core":{"percentAssemblyMatched":76.4,"percentMatched":100,"size":3917},"mlst":{"code":"1_1_2_1_1_1_5","st":"2"}},"position":{"longitude":-63.616672,"latitude":-38.416097},"date":{"day":null,"month":null,"year":2006},"id":"58dd423738acf20011d6adc9"},{"metrics":{"assemblyN50Data":{"sequenceLength":4791961,"sum":4791961,"sequenceNumber":1},"sumsOfNucleotidesInDnaStrings":[4791961],"gcContent":52.1,"biggestNumberOfNucleotidesInDnaStrings":4791961,"smallestNumberOfNucleotidesInDnaStrings":4791961,"averageNumberOfNucleotidesInDnaStrings":4791961,"totalNumberOfNsInDnaStrings":11,"totalNumberOfNucleotidesInDnaStrings":4791961,"contigN50":4791961,"totalNumberOfContigs":1},"userDefined":{"sanger lane":"NA","study accession":"PRJNA371","accession":"GCF_000007545.1","source":"Unknown","strain":"Ty2","genotype":"4.1.0","accuracy":"1","country":"Russia"},"pmid":"12644504","country":"ru","name":"Ty2_ST1","fileId":"f19ce57be5db4bd3f12a03fe95a18f3b5a3d73d6","_collection":"58dd423738acf20011d6adb8","uuid":"90370_Ty2","analysis":{"genotyphi":{"foundLoci":68,"snps":3,"genotype":"4.1"},"paarsnp":{"snp":[],"paar":[],"antibiotics":{"AMP":{"name":"AMP","state":"UNKNOWN","mechanisms":[]},"CEP":{"name":"CEP","state":"UNKNOWN","mechanisms":[]},"CHL":{"name":"CHL","state":"UNKNOWN","mechanisms":[]},"CIP":{"name":"CIP","state":"UNKNOWN","mechanisms":[]},"NAL":{"name":"NAL","state":"UNKNOWN","mechanisms":[]},"SMX":{"name":"SMX","state":"UNKNOWN","mechanisms":[]},"TMP":{"name":"TMP","state":"UNKNOWN","mechanisms":[]},"SXT":{"name":"SXT","state":"UNKNOWN","mechanisms":[]},"TCY":{"name":"TCY","state":"UNKNOWN","mechanisms":[]},"AZM":{"name":"AZM","state":"UNKNOWN","mechanisms":[]},"SIL":{"name":"SIL","state":"UNKNOWN","mechanisms":[]}}},"core":{"percentAssemblyMatched":75.2,"percentMatched":100,"size":3918},"mlst":{"code":"1_1_1_1_1_1_5","st":"1"}},"position":{"longitude":105.318756,"latitude":61.52401},"date":{"day":null,"month":null,"year":1916},"id":"58dd423738acf20011d6adca"},{"metrics":{"assemblyN50Data":{"sequenceLength":185395,"sum":2493856,"sequenceNumber":9},"sumsOfNucleotidesInDnaStrings":[492715,885857,1181434,1430988,1675921,1897869,2104154,2308461,2493856,2665826,2819560,2968905,3113636,3257165,3399340,3538683,3670807,3784402,3893568,3991482,4084220,4165084,4229815,4292860,4355197,4415799,4466983,4510843,4544005,4575744,4606663,4633000,4655345,4667690,4676205,4683279,4690076,4695216,4699031,4702838,4705533,4707269,4707798],"gcContent":52.1,"biggestNumberOfNucleotidesInDnaStrings":492715,"smallestNumberOfNucleotidesInDnaStrings":529,"averageNumberOfNucleotidesInDnaStrings":109483,"totalNumberOfNsInDnaStrings":0,"totalNumberOfNucleotidesInDnaStrings":4707798,"contigN50":185395,"totalNumberOfContigs":43},"userDefined":{"sanger lane":"10060_6#51","study accession":"ERP001718","accession":"ERR331348","source":"Blood","strain":"UI4692","genotype":"2.2.3","accuracy":"1","country":"Laos"},"pmid":"25961941","country":"la","name":"UI4692_ST2","fileId":"6844efe8377dd0adc940144d7a255459347080bf","_collection":"58dd423738acf20011d6adb8","uuid":"90370_UI4692","analysis":{"genotyphi":{"foundLoci":68,"snps":4,"genotype":"2.2.2,2.2.3"},"paarsnp":{"snp":[],"paar":[],"antibiotics":{"AMP":{"name":"AMP","state":"UNKNOWN","mechanisms":[]},"CEP":{"name":"CEP","state":"UNKNOWN","mechanisms":[]},"CHL":{"name":"CHL","state":"UNKNOWN","mechanisms":[]},"CIP":{"name":"CIP","state":"UNKNOWN","mechanisms":[]},"NAL":{"name":"NAL","state":"UNKNOWN","mechanisms":[]},"SMX":{"name":"SMX","state":"UNKNOWN","mechanisms":[]},"TMP":{"name":"TMP","state":"UNKNOWN","mechanisms":[]},"SXT":{"name":"SXT","state":"UNKNOWN","mechanisms":[]},"TCY":{"name":"TCY","state":"UNKNOWN","mechanisms":[]},"AZM":{"name":"AZM","state":"UNKNOWN","mechanisms":[]},"SIL":{"name":"SIL","state":"UNKNOWN","mechanisms":[]}}},"core":{"percentAssemblyMatched":76.5,"percentMatched":100,"size":3916},"mlst":{"code":"1_1_2_1_1_1_5","st":"2"}},"position":{"longitude":102.495496,"latitude":19.85627},"date":{"day":null,"month":null,"year":2004},"id":"58dd423738acf20011d6adcb"}],"id":"58dd42d18fab750001b17af0"},"genomes":[{"uuid":"MGJlYTRjMGYtYWVlNi00Nm","name":"10593_2#58.contigs_velvet.fa","metrics":{"totalNumberOfContigs":53,"contigN50":204286,"totalNumberOfNucleotidesInDnaStrings":4908357,"totalNumberOfNsInDnaStrings":61,"averageNumberOfNucleotidesInDnaStrings":92610,"smallestNumberOfNucleotidesInDnaStrings":324,"biggestNumberOfNucleotidesInDnaStrings":466593,"gcContent":51.9,"sumsOfNucleotidesInDnaStrings":[466593,859452,1112687,1362288,1607557,1829331,2048282,2254351,2458637,2617136,2772168,2925851,3075230,3221701,3366471,3510826,3628677,3726509,3807739,3888604,3962086,4027184,4090269,4150929,4207167,4261660,4315044,4363717,4409747,4455737,4499632,4543117,4585967,4624960,4658095,4689935,4720892,4750147,4776594,4802893,4825211,4842228,4854607,4865502,4875264,4883883,4890996,4897651,4902788,4905498,4907365,4908033,4908357],"assemblyN50Data":{"sequenceNumber":9,"sum":2458637,"sequenceLength":204286}},"analysis":{"genotyphi":{"genotype":"3.1.1","snps":4,"foundLoci":68},"paarsnp":{"antibiotics":{"SIL":{"mechanisms":[],"state":"UNKNOWN","name":"SIL"},"AZM":{"mechanisms":[],"state":"UNKNOWN","name":"AZM"},"TCY":{"mechanisms":[],"state":"UNKNOWN","name":"TCY"},"SXT":{"mechanisms":["sul1-dfrA1"],"state":"RESISTANT","name":"SXT"},"TMP":{"mechanisms":["dfrA1"],"state":"RESISTANT","name":"TMP"},"SMX":{"mechanisms":["sul1"],"state":"RESISTANT","name":"SMX"},"NAL":{"mechanisms":[],"state":"UNKNOWN","name":"NAL"},"CIP":{"mechanisms":[],"state":"UNKNOWN","name":"CIP"},"CHL":{"mechanisms":["catA1"],"state":"RESISTANT","name":"CHL"},"CEP":{"mechanisms":[],"state":"UNKNOWN","name":"CEP"},"AMP":{"mechanisms":["TEM-1"],"state":"RESISTANT","name":"AMP"}},"paar":["TEM-1","sul1","dfrA1","catA1"],"snp":[]},"core":{"size":3912,"percentMatched":99.9,"percentAssemblyMatched":73.2},"mlst":{"st":"2","code":"1_1_2_1_1_1_5"},"fp":{"subtype":"90370_404Ty","referenceName":"404Ty_ST2"}},"id":"58dd4a5b706ea2000104bdcf"}]}
