{"name":"90370_404Ty_3.1","assemblies":{"YTMwMDVlODYtZjY2NC00MD":{"populationSubtype":"90370_404Ty_3.1","metadata":{"assemblyId":"YTMwMDVlODYtZjY2NC00MD","speciesId":"90370","assemblyName":"10593_2_32_France_African_meal09-2619_2009","date":{"year":"2009"},"position":{"latitude":46.227638,"longitude":2.213749},"pmid":"25961941","userDefined":{"country":"France (African meal)","accuracy":"1","genotype":"3.1.1","strain":"09-2619","source":"Not provided","accession":"ERR360645","study accession":"ERP001718"},"metrics":{"totalNumberOfContigs":49,"assemblyN50Data":{"sequenceNumber":9,"sum":2625610,"sequenceLength":206210},"contigN50":206210,"sumsOfNucleotidesInDnaStrings":[466392,859255,1191448,1486871,1736753,1982064,2201532,2419400,2625610,2829900,3015634,3187596,3346020,3495416,3640130,3780081,3893575,3991407,4072272,4137379,4200476,4261130,4317387,4370771,4419491,4465805,4511809,4555721,4599272,4642697,4675859,4707749,4738792,4769260,4796207,4818552,4838856,4851188,4862085,4871846,4880355,4887422,4894098,4900397,4904884,4907571,4909436,4910092,4910458],"totalNumberOfNucleotidesInDnaStrings":4910458,"totalNumberOfNsInDnaStrings":6,"averageNumberOfNucleotidesInDnaStrings":100213,"smallestNumberOfNucleotidesInDnaStrings":366,"biggestNumberOfNucleotidesInDnaStrings":466392,"gcContent":"51.9"}},"analysis":{"st":"2","mlst":"1_1_2_1_1_1_5","core":{"size":3912,"percentMatched":99.9,"percentAssemblyMatched":73.2},"resistanceProfile":{"AMP":{"name":"AMP","state":"RESISTANT","mechanisms":["TEM-1"]},"CEP":{"name":"CEP","state":"UNKNOWN","mechanisms":[]},"CHL":{"name":"CHL","state":"RESISTANT","mechanisms":["catA1"]},"CIP":{"name":"CIP","state":"UNKNOWN","mechanisms":[]},"NAL":{"name":"NAL","state":"UNKNOWN","mechanisms":[]},"SMX":{"name":"SMX","state":"RESISTANT","mechanisms":["sulI"]},"TMP":{"name":"TMP","state":"RESISTANT","mechanisms":["dfrA1"]},"SXT":{"name":"SXT","state":"RESISTANT","mechanisms":["sulI-dfrA1"]},"TCY":{"name":"TCY","state":"RESISTANT","mechanisms":["tetR","tetA"]},"AZM":{"name":"AZM","state":"UNKNOWN","mechanisms":[]},"SIL":{"name":"SIL","state":"UNKNOWN","mechanisms":[]}}}},"MzM5NDQwMTEtOTVmYy00Nj":{"populationSubtype":"90370_404Ty_3.1","metadata":{"assemblyId":"MzM5NDQwMTEtOTVmYy00Nj","speciesId":"90370","assemblyName":"10349_1_39_Chin084170_2008","date":{"year":"2008"},"position":{"latitude":35.86166,"longitude":104.195397},"pmid":"25961941","userDefined":{"country":"China","accuracy":"1","genotype":"3.1.2","strain":"ERL084170","source":"Blood","accession":"ERR343287","study accession":"ERP001718"},"metrics":{"totalNumberOfContigs":54,"assemblyN50Data":{"sequenceNumber":10,"sum":2516518,"sequenceLength":185417},"contigN50":185417,"sumsOfNucleotidesInDnaStrings":[466885,729965,982914,1233325,1483132,1702239,1920323,2126545,2331101,2516518,2689884,2862222,3025271,3178988,3328398,3473310,3603837,3733797,3847517,3945634,4026536,4089584,4150137,4206335,4259830,4308530,4352320,4395901,4439227,4482111,4515178,4546910,4577754,4604038,4626336,4646462,4658736,4670150,4678609,4685772,4692391,4698690,4703020,4706807,4710162,4713296,4716205,4718844,4720634,4721896,4722756,4723408,4723763,4724107],"totalNumberOfNucleotidesInDnaStrings":4724107,"totalNumberOfNsInDnaStrings":26084,"averageNumberOfNucleotidesInDnaStrings":87483,"smallestNumberOfNucleotidesInDnaStrings":344,"biggestNumberOfNucleotidesInDnaStrings":466885,"gcContent":"52.1"}},"analysis":{"st":"2","mlst":"1_1_2_1_1_1_5","core":{"size":3863,"percentMatched":98.6,"percentAssemblyMatched":74.6},"resistanceProfile":{"AMP":{"name":"AMP","state":"UNKNOWN","mechanisms":[]},"CEP":{"name":"CEP","state":"UNKNOWN","mechanisms":[]},"CHL":{"name":"CHL","state":"UNKNOWN","mechanisms":[]},"CIP":{"name":"CIP","state":"UNKNOWN","mechanisms":[]},"NAL":{"name":"NAL","state":"UNKNOWN","mechanisms":[]},"SMX":{"name":"SMX","state":"UNKNOWN","mechanisms":[]},"TMP":{"name":"TMP","state":"UNKNOWN","mechanisms":[]},"SXT":{"name":"SXT","state":"UNKNOWN","mechanisms":[]},"TCY":{"name":"TCY","state":"UNKNOWN","mechanisms":[]},"AZM":{"name":"AZM","state":"UNKNOWN","mechanisms":[]},"SIL":{"name":"SIL","state":"UNKNOWN","mechanisms":[]}}}},"NDJiMTUwYWMtZjkyMy00NT":{"populationSubtype":"90370_404Ty_3.1","metadata":{"assemblyId":"NDJiMTUwYWMtZjkyMy00NT","speciesId":"90370","assemblyName":"10593_2_12_Africa09-9292_2009","date":{"year":"2009"},"position":{"latitude":-8.783195,"longitude":34.508523},"pmid":"25961941","userDefined":{"country":"Africa","accuracy":"9","genotype":"3.1.1","strain":"09-9292","source":"Not provided","accession":"ERR360625","study accession":"ERP001718"},"metrics":{"totalNumberOfContigs":43,"assemblyN50Data":{"sequenceNumber":8,"sum":2393612,"sequenceLength":205974},"contigN50":205974,"sumsOfNucleotidesInDnaStrings":[466486,870244,1263756,1513337,1758618,1978327,2187638,2393612,2597903,2771157,2943098,3101597,3250972,3395740,3536778,3673506,3792967,3906468,4004300,4096605,4177467,4243012,4306096,4366756,4422997,4468902,4512802,4545933,4577843,4608798,4635107,4657413,4677639,4690021,4698640,4705752,4712414,4718713,4723204,4727016,4730026,4732761,4733424],"totalNumberOfNucleotidesInDnaStrings":4733424,"totalNumberOfNsInDnaStrings":25,"averageNumberOfNucleotidesInDnaStrings":110079,"smallestNumberOfNucleotidesInDnaStrings":663,"biggestNumberOfNucleotidesInDnaStrings":466486,"gcContent":"52.1"}},"analysis":{"st":"2","mlst":"1_1_2_1_1_1_5","core":{"size":3912,"percentMatched":99.9,"percentAssemblyMatched":75.9},"resistanceProfile":{"AMP":{"name":"AMP","state":"UNKNOWN","mechanisms":[]},"CEP":{"name":"CEP","state":"UNKNOWN","mechanisms":[]},"CHL":{"name":"CHL","state":"RESISTANT","mechanisms":["catA1"]},"CIP":{"name":"CIP","state":"UNKNOWN","mechanisms":[]},"NAL":{"name":"NAL","state":"UNKNOWN","mechanisms":[]},"SMX":{"name":"SMX","state":"RESISTANT","mechanisms":["sulI"]},"TMP":{"name":"TMP","state":"RESISTANT","mechanisms":["dfrA1"]},"SXT":{"name":"SXT","state":"RESISTANT","mechanisms":["sulI-dfrA1"]},"TCY":{"name":"TCY","state":"UNKNOWN","mechanisms":[]},"AZM":{"name":"AZM","state":"UNKNOWN","mechanisms":[]},"SIL":{"name":"SIL","state":"UNKNOWN","mechanisms":[]}}}},"NTI4MTFkYjUtZmI3Ny00Mz":{"populationSubtype":"90370_404Ty_3.1","metadata":{"assemblyId":"NTI4MTFkYjUtZmI3Ny00Mz","speciesId":"90370","assemblyName":"10060_5_23_IndoA178_2009","date":{"year":"2009"},"position":{"latitude":-0.789275,"longitude":113.921327},"pmid":"25961941","userDefined":{"country":"Indonesia","accuracy":"1","genotype":"3.1.2","strain":"A178","source":"Blood","accession":"ERR331226","study accession":"ERP001718"},"metrics":{"totalNumberOfContigs":47,"assemblyN50Data":{"sequenceNumber":9,"sum":2374152,"sequenceLength":173262},"contigN50":173262,"sumsOfNucleotidesInDnaStrings":[466402,762294,1057735,1320680,1570769,1790480,1996578,2200890,2374152,2547395,2719368,2880424,3034003,3183386,3328155,3459105,3589171,3707379,3805365,3897800,3981327,4062339,4127885,4190968,4251608,4307851,4362370,4406268,4448363,4481536,4513443,4545029,4575986,4598331,4618539,4630992,4643375,4651966,4659078,4665766,4670262,4672995,4674820,4676482,4677201,4677878,4678477],"totalNumberOfNucleotidesInDnaStrings":4678477,"totalNumberOfNsInDnaStrings":36,"averageNumberOfNucleotidesInDnaStrings":99542,"smallestNumberOfNucleotidesInDnaStrings":599,"biggestNumberOfNucleotidesInDnaStrings":466402,"gcContent":"52.1"}},"analysis":{"st":"2","mlst":"1_1_2_1_1_1_5","core":{"size":3872,"percentMatched":98.9,"percentAssemblyMatched":76.4},"resistanceProfile":{"AMP":{"name":"AMP","state":"UNKNOWN","mechanisms":[]},"CEP":{"name":"CEP","state":"UNKNOWN","mechanisms":[]},"CHL":{"name":"CHL","state":"UNKNOWN","mechanisms":[]},"CIP":{"name":"CIP","state":"UNKNOWN","mechanisms":[]},"NAL":{"name":"NAL","state":"UNKNOWN","mechanisms":[]},"SMX":{"name":"SMX","state":"UNKNOWN","mechanisms":[]},"TMP":{"name":"TMP","state":"UNKNOWN","mechanisms":[]},"SXT":{"name":"SXT","state":"UNKNOWN","mechanisms":[]},"TCY":{"name":"TCY","state":"UNKNOWN","mechanisms":[]},"AZM":{"name":"AZM","state":"UNKNOWN","mechanisms":[]},"SIL":{"name":"SIL","state":"UNKNOWN","mechanisms":[]}}}},"NmUyMTcyMGUtMzY0MS00OT":{"populationSubtype":"90370_404Ty_3.1","metadata":{"assemblyId":"NmUyMTcyMGUtMzY0MS00OT","speciesId":"90370","assemblyName":"15252","date":{"year":"ND"},"position":{"latitude":52.3555177,"longitude":-1.1743197},"pmid":"27069781","userDefined":{"country":"United Kingdom: None","accuracy":"2","genotype":"3.1","strain":"15252","source":"Unknown","accession":"SRR3048982","study accession":"SRP042645"},"metrics":{"totalNumberOfContigs":45,"assemblyN50Data":{"sequenceNumber":9,"sum":2402321,"sequenceLength":172161},"contigN50":172161,"sumsOfNucleotidesInDnaStrings":[419408,827196,1121914,1378136,1628300,1847097,2051430,2230160,2402321,2565371,2719145,2868556,3014300,3159098,3294726,3427024,3550557,3664073,3762043,3855705,3947901,4028705,4102500,4167188,4230195,4291408,4350046,4406234,4450161,4493537,4532773,4566009,4597715,4629208,4660194,4682571,4694983,4703558,4710699,4717516,4721510,4724272,4724786,4725240,4725599],"totalNumberOfNucleotidesInDnaStrings":4725599,"totalNumberOfNsInDnaStrings":2723,"averageNumberOfNucleotidesInDnaStrings":105013,"smallestNumberOfNucleotidesInDnaStrings":359,"biggestNumberOfNucleotidesInDnaStrings":419408,"gcContent":"52.1"}},"analysis":{"st":"2","mlst":"1_1_2_1_1_1_5","core":{"size":3909,"percentMatched":99.8,"percentAssemblyMatched":76.1},"resistanceProfile":{"AMP":{"name":"AMP","state":"UNKNOWN","mechanisms":[]},"CEP":{"name":"CEP","state":"UNKNOWN","mechanisms":[]},"CHL":{"name":"CHL","state":"UNKNOWN","mechanisms":[]},"CIP":{"name":"CIP","state":"UNKNOWN","mechanisms":[]},"NAL":{"name":"NAL","state":"UNKNOWN","mechanisms":[]},"SMX":{"name":"SMX","state":"UNKNOWN","mechanisms":[]},"TMP":{"name":"TMP","state":"UNKNOWN","mechanisms":[]},"SXT":{"name":"SXT","state":"UNKNOWN","mechanisms":[]},"TCY":{"name":"TCY","state":"UNKNOWN","mechanisms":[]},"AZM":{"name":"AZM","state":"UNKNOWN","mechanisms":[]},"SIL":{"name":"SIL","state":"UNKNOWN","mechanisms":[]}}}},"YmU1ZWZhMmQtNmNjOS00Nz":{"populationSubtype":"90370_404Ty_3.1","metadata":{"assemblyId":"YmU1ZWZhMmQtNmNjOS00Nz","speciesId":"90370","assemblyName":"10592_2_53_France_African_name09-2214_2009","date":{"year":"2009"},"position":{"latitude":46.227638,"longitude":2.213749},"pmid":"25961941","userDefined":{"country":"France (mother-child, African name)","accuracy":"1","genotype":"3.1.1","strain":"09-2214","source":"Not provided","accession":"ERR360501","study accession":"ERP001718"},"metrics":{"totalNumberOfContigs":43,"assemblyN50Data":{"sequenceNumber":7,"sum":2507232,"sequenceLength":205988},"contigN50":205988,"sumsOfNucleotidesInDnaStrings":[689786,1163911,1583640,1833817,2083401,2301244,2507232,2711494,2897330,3055829,3210865,3364833,3514194,3658948,3773631,3871463,3952321,4027421,4092480,4155435,4216077,4272738,4328954,4377661,4421540,4464988,4507822,4540922,4572650,4603593,4630040,4652352,4669364,4681720,4690339,4697424,4704075,4708558,4712358,4715599,4718733,4721450,4722096],"totalNumberOfNucleotidesInDnaStrings":4722096,"totalNumberOfNsInDnaStrings":24,"averageNumberOfNucleotidesInDnaStrings":109816,"smallestNumberOfNucleotidesInDnaStrings":646,"biggestNumberOfNucleotidesInDnaStrings":689786,"gcContent":"52.1"}},"analysis":{"st":"2","mlst":"1_1_2_1_1_1_5","core":{"size":3912,"percentMatched":99.9,"percentAssemblyMatched":76.1},"resistanceProfile":{"AMP":{"name":"AMP","state":"UNKNOWN","mechanisms":[]},"CEP":{"name":"CEP","state":"UNKNOWN","mechanisms":[]},"CHL":{"name":"CHL","state":"UNKNOWN","mechanisms":[]},"CIP":{"name":"CIP","state":"UNKNOWN","mechanisms":[]},"NAL":{"name":"NAL","state":"UNKNOWN","mechanisms":[]},"SMX":{"name":"SMX","state":"UNKNOWN","mechanisms":[]},"TMP":{"name":"TMP","state":"UNKNOWN","mechanisms":[]},"SXT":{"name":"SXT","state":"UNKNOWN","mechanisms":[]},"TCY":{"name":"TCY","state":"UNKNOWN","mechanisms":[]},"AZM":{"name":"AZM","state":"UNKNOWN","mechanisms":[]},"SIL":{"name":"SIL","state":"UNKNOWN","mechanisms":[]}}}},"MmFiYzYzMGEtYmI5ZS00Y2":{"populationSubtype":"90370_404Ty_3.1","metadata":{"assemblyId":"MmFiYzYzMGEtYmI5ZS00Y2","speciesId":"90370","assemblyName":"10593_2_20_IvoCoa07-5494_2007","date":{"year":"2007"},"position":{"latitude":7.539989,"longitude":-5.54708},"pmid":"25961941","userDefined":{"country":"Ivory Coast","accuracy":"1","genotype":"3.1.1","strain":"07-5494","source":"Not provided","accession":"ERR360633","study accession":"ERP001718"},"metrics":{"totalNumberOfContigs":51,"assemblyN50Data":{"sequenceNumber":7,"sum":2479024,"sequenceLength":217882},"contigN50":217882,"sumsOfNucleotidesInDnaStrings":[923849,1316711,1566672,1811475,2039372,2261142,2479024,2685019,2843518,2998548,3152232,3301601,3448018,3592776,3710321,3808119,3888960,3959436,4024520,4087523,4148177,4204366,4258848,4312232,4360939,4407190,4453180,4497072,4540605,4583435,4622471,4655596,4687503,4718862,4749733,4780201,4802518,4822658,4839663,4852029,4862922,4872666,4881285,4888396,4895051,4901350,4903981,4906256,4908069,4908732,4909206],"totalNumberOfNucleotidesInDnaStrings":4909206,"totalNumberOfNsInDnaStrings":1,"averageNumberOfNucleotidesInDnaStrings":96258,"smallestNumberOfNucleotidesInDnaStrings":474,"biggestNumberOfNucleotidesInDnaStrings":923849,"gcContent":"51.9"}},"analysis":{"st":"2","mlst":"1_1_2_1_1_1_5","core":{"size":3912,"percentMatched":99.9,"percentAssemblyMatched":73.2},"resistanceProfile":{"AMP":{"name":"AMP","state":"RESISTANT","mechanisms":["TEM-1"]},"CEP":{"name":"CEP","state":"UNKNOWN","mechanisms":[]},"CHL":{"name":"CHL","state":"RESISTANT","mechanisms":["catA1"]},"CIP":{"name":"CIP","state":"UNKNOWN","mechanisms":[]},"NAL":{"name":"NAL","state":"UNKNOWN","mechanisms":[]},"SMX":{"name":"SMX","state":"RESISTANT","mechanisms":["sulI"]},"TMP":{"name":"TMP","state":"RESISTANT","mechanisms":["dfrA1"]},"SXT":{"name":"SXT","state":"RESISTANT","mechanisms":["sulI-dfrA1"]},"TCY":{"name":"TCY","state":"RESISTANT","mechanisms":["tetR","tetA"]},"AZM":{"name":"AZM","state":"UNKNOWN","mechanisms":[]},"SIL":{"name":"SIL","state":"UNKNOWN","mechanisms":[]}}}},"YmM2YjFlM2QtNmM3Ny00Yz":{"populationSubtype":"90370_404Ty_3.1","metadata":{"assemblyId":"YmM2YjFlM2QtNmM3Ny00Yz","speciesId":"90370","assemblyName":"10592_2_82_Nig09-8993_2009","date":{"year":"2009"},"position":{"latitude":9.081999,"longitude":8.675277},"pmid":"25961941","userDefined":{"country":"Nigeria","accuracy":"1","genotype":"3.1.1","strain":"09-8993","source":"Not provided","accession":"ERR360530","study accession":"ERP001718"},"metrics":{"totalNumberOfContigs":49,"assemblyN50Data":{"sequenceNumber":9,"sum":2545018,"sequenceLength":204290},"contigN50":204290,"sumsOfNucleotidesInDnaStrings":[531936,951666,1201829,1451404,1696673,1916735,2134659,2340728,2545018,2747231,2932603,3105855,3277845,3436227,3585550,3730257,3865834,3979317,4077030,4164105,4227137,4287741,4343901,4397285,4445944,4492182,4538198,4582042,4625555,4668385,4701507,4733420,4764314,4794782,4817100,4837255,4849586,4859340,4867849,4875015,4882070,4888724,4893203,4897000,4900407,4903541,4906209,4908264,4908930],"totalNumberOfNucleotidesInDnaStrings":4908930,"totalNumberOfNsInDnaStrings":19,"averageNumberOfNucleotidesInDnaStrings":100182,"smallestNumberOfNucleotidesInDnaStrings":666,"biggestNumberOfNucleotidesInDnaStrings":531936,"gcContent":"51.9"}},"analysis":{"st":"2","mlst":"1_1_2_1_1_1_5","core":{"size":3912,"percentMatched":99.9,"percentAssemblyMatched":73.2},"resistanceProfile":{"AMP":{"name":"AMP","state":"RESISTANT","mechanisms":["TEM-1"]},"CEP":{"name":"CEP","state":"UNKNOWN","mechanisms":[]},"CHL":{"name":"CHL","state":"RESISTANT","mechanisms":["catA1"]},"CIP":{"name":"CIP","state":"UNKNOWN","mechanisms":[]},"NAL":{"name":"NAL","state":"UNKNOWN","mechanisms":[]},"SMX":{"name":"SMX","state":"RESISTANT","mechanisms":["sulI"]},"TMP":{"name":"TMP","state":"RESISTANT","mechanisms":["dfrA1"]},"SXT":{"name":"SXT","state":"RESISTANT","mechanisms":["sulI-dfrA1"]},"TCY":{"name":"TCY","state":"RESISTANT","mechanisms":["tetA","tetR"]},"AZM":{"name":"AZM","state":"UNKNOWN","mechanisms":[]},"SIL":{"name":"SIL","state":"UNKNOWN","mechanisms":[]}}}},"MGEzZTExZmUtZjUyZi00ZD":{"populationSubtype":"90370_404Ty_3.1","metadata":{"assemblyId":"MGEzZTExZmUtZjUyZi00ZD","speciesId":"90370","assemblyName":"10071_3_84_IndoA125_2005","date":{"year":"2005"},"position":{"latitude":-0.789275,"longitude":113.921327},"pmid":"25961941","userDefined":{"country":"Indonesia","accuracy":"1","genotype":"3.1.2","strain":"A125","source":"Blood","accession":"ERR338060","study accession":"ERP001718"},"metrics":{"totalNumberOfContigs":50,"assemblyN50Data":{"sequenceNumber":10,"sum":2407292,"sequenceLength":171915},"contigN50":171915,"sumsOfNucleotidesInDnaStrings":[466394,762384,1011977,1256953,1478569,1684661,1888950,2062212,2235377,2407292,2577803,2746815,2910103,3063825,3213208,3357977,3487790,3601294,3699280,3786378,3866800,3932148,3995231,4055871,4112114,4167614,4217357,4266090,4309988,4353587,4396969,4439301,4476149,4509322,4540279,4566463,4588808,4609017,4624035,4636418,4648323,4656914,4664026,4670712,4675196,4677929,4679609,4680766,4681433,4682083],"totalNumberOfNucleotidesInDnaStrings":4682083,"totalNumberOfNsInDnaStrings":10,"averageNumberOfNucleotidesInDnaStrings":93641,"smallestNumberOfNucleotidesInDnaStrings":650,"biggestNumberOfNucleotidesInDnaStrings":466394,"gcContent":"52.1"}},"analysis":{"st":"2","mlst":"1_1_2_1_1_1_5","core":{"size":3879,"percentMatched":99,"percentAssemblyMatched":76.5},"resistanceProfile":{"AMP":{"name":"AMP","state":"UNKNOWN","mechanisms":[]},"CEP":{"name":"CEP","state":"UNKNOWN","mechanisms":[]},"CHL":{"name":"CHL","state":"UNKNOWN","mechanisms":[]},"CIP":{"name":"CIP","state":"UNKNOWN","mechanisms":[]},"NAL":{"name":"NAL","state":"UNKNOWN","mechanisms":[]},"SMX":{"name":"SMX","state":"UNKNOWN","mechanisms":[]},"TMP":{"name":"TMP","state":"UNKNOWN","mechanisms":[]},"SXT":{"name":"SXT","state":"UNKNOWN","mechanisms":[]},"TCY":{"name":"TCY","state":"UNKNOWN","mechanisms":[]},"AZM":{"name":"AZM","state":"UNKNOWN","mechanisms":[]},"SIL":{"name":"SIL","state":"UNKNOWN","mechanisms":[]}}}},"ZTQyY2NiNmYtMjRjMi00NG":{"populationSubtype":"90370_404Ty_3.1","metadata":{"assemblyId":"ZTQyY2NiNmYtMjRjMi00NG","speciesId":"90370","assemblyName":"10593_2_16_Tun69-61_1961","date":{"year":"1961"},"position":{"latitude":33.886917,"longitude":9.537499},"pmid":"25961941","userDefined":{"country":"Tunisia","accuracy":"1","genotype":"3.1.0","strain":"69-61","source":"Not provided","accession":"ERR360629","study accession":"ERP001718"},"metrics":{"totalNumberOfContigs":43,"assemblyN50Data":{"sequenceNumber":7,"sum":2467263,"sequenceLength":202225},"contigN50":202225,"sumsOfNucleotidesInDnaStrings":[672837,1129709,1549501,1799519,2044778,2265038,2467263,2653322,2826577,2998492,3152497,3301855,3446608,3590930,3726558,3840059,3938073,4018944,4092426,4157158,4220218,4280855,4336939,4385608,4429483,4472945,4515797,4548930,4580770,4611704,4634020,4654240,4666625,4675244,4682410,4689499,4696162,4702461,4706951,4710761,4713612,4716322,4716985],"totalNumberOfNucleotidesInDnaStrings":4716985,"totalNumberOfNsInDnaStrings":12,"averageNumberOfNucleotidesInDnaStrings":109697,"smallestNumberOfNucleotidesInDnaStrings":663,"biggestNumberOfNucleotidesInDnaStrings":672837,"gcContent":"52.1"}},"analysis":{"st":"2","mlst":"1_1_2_1_1_1_5","core":{"size":3913,"percentMatched":99.9,"percentAssemblyMatched":76.3},"resistanceProfile":{"AMP":{"name":"AMP","state":"UNKNOWN","mechanisms":[]},"CEP":{"name":"CEP","state":"UNKNOWN","mechanisms":[]},"CHL":{"name":"CHL","state":"UNKNOWN","mechanisms":[]},"CIP":{"name":"CIP","state":"UNKNOWN","mechanisms":[]},"NAL":{"name":"NAL","state":"UNKNOWN","mechanisms":[]},"SMX":{"name":"SMX","state":"UNKNOWN","mechanisms":[]},"TMP":{"name":"TMP","state":"UNKNOWN","mechanisms":[]},"SXT":{"name":"SXT","state":"UNKNOWN","mechanisms":[]},"TCY":{"name":"TCY","state":"UNKNOWN","mechanisms":[]},"AZM":{"name":"AZM","state":"UNKNOWN","mechanisms":[]},"SIL":{"name":"SIL","state":"UNKNOWN","mechanisms":[]}}}},"NjliYTRlNGUtZGMyZC00Mm":{"populationSubtype":"90370_404Ty_3.1","metadata":{"assemblyId":"NjliYTRlNGUtZGMyZC00Mm","speciesId":"90370","assemblyName":"11800_1_87_NigH09044141_2009","date":{"year":"2009"},"position":{"latitude":9.081999,"longitude":8.675277},"pmid":"","userDefined":{"country":"Nigeria","accuracy":"1","genotype":"3.1.1","strain":"H09044141","source":"Blood","accession":"ERR1017096","study accession":""},"metrics":{"totalNumberOfContigs":72,"assemblyN50Data":{"sequenceNumber":11,"sum":2520585,"sequenceLength":154996},"contigN50":154996,"sumsOfNucleotidesInDnaStrings":[466382,729166,979142,1223935,1442869,1647175,1848905,2034252,2207252,2365589,2520585,2674171,2818874,2963218,3099124,3229152,3342738,3448865,3546547,3637931,3718963,3799796,3873200,3943178,4008271,4068844,4125027,4179489,4232907,4281496,4329373,4375937,4419813,4463283,4506606,4545085,4579253,4612415,4644113,4675003,4701287,4723632,4743758,4760816,4777226,4791967,4804317,4816635,4825265,4833724,4841436,4848702,4855868,4862915,4869581,4875880,4880525,4884855,4888322,4891456,4894404,4897072,4899218,4901008,4902648,4903910,4905101,4905961,4906438,4906912,4907236,4907547],"totalNumberOfNucleotidesInDnaStrings":4907547,"totalNumberOfNsInDnaStrings":10420,"averageNumberOfNucleotidesInDnaStrings":68160,"smallestNumberOfNucleotidesInDnaStrings":311,"biggestNumberOfNucleotidesInDnaStrings":466382,"gcContent":"51.9"}},"analysis":{"st":"2","mlst":"1_1_2_1_1_1_5","core":{"size":3893,"percentMatched":99.4,"percentAssemblyMatched":72.7},"resistanceProfile":{"AMP":{"name":"AMP","state":"RESISTANT","mechanisms":["TEM-1"]},"CEP":{"name":"CEP","state":"UNKNOWN","mechanisms":[]},"CHL":{"name":"CHL","state":"RESISTANT","mechanisms":["catA1"]},"CIP":{"name":"CIP","state":"UNKNOWN","mechanisms":[]},"NAL":{"name":"NAL","state":"UNKNOWN","mechanisms":[]},"SMX":{"name":"SMX","state":"RESISTANT","mechanisms":["sulI"]},"TMP":{"name":"TMP","state":"RESISTANT","mechanisms":["dfrA1"]},"SXT":{"name":"SXT","state":"RESISTANT","mechanisms":["sulI-dfrA1"]},"TCY":{"name":"TCY","state":"RESISTANT","mechanisms":["tetA","tetR"]},"AZM":{"name":"AZM","state":"UNKNOWN","mechanisms":[]},"SIL":{"name":"SIL","state":"UNKNOWN","mechanisms":[]}}}},"MjUwNzlkYzYtMTY0NS00NW":{"populationSubtype":"90370_404Ty_3.1","metadata":{"assemblyId":"MjUwNzlkYzYtMTY0NS00NW","speciesId":"90370","assemblyName":"10593_2_8_Tog04-0339_2004","date":{"year":"2004"},"position":{"latitude":8.619543,"longitude":0.824782},"pmid":"25961941","userDefined":{"country":"Togo","accuracy":"1","genotype":"3.1.1","strain":"04-0339","source":"Not provided","accession":"ERR360621","study accession":"ERP001718"},"metrics":{"totalNumberOfContigs":51,"assemblyN50Data":{"sequenceNumber":10,"sum":2559945,"sequenceLength":173251},"contigN50":173251,"sumsOfNucleotidesInDnaStrings":[466401,859264,1109232,1358815,1578455,1787778,1995129,2201114,2386694,2559945,2731897,2892230,3050688,3200070,3344839,3489209,3629761,3743263,3841042,3926337,4007201,4080644,4145923,4209006,4269646,4325889,4374545,4420783,4466797,4510695,4554195,4597036,4633940,4667102,4698991,4730352,4761309,4791777,4814122,4834301,4846684,4856450,4865041,4872153,4878825,4885124,4888926,4891659,4893514,4894176,4894500],"totalNumberOfNucleotidesInDnaStrings":4894500,"totalNumberOfNsInDnaStrings":12,"averageNumberOfNucleotidesInDnaStrings":95970,"smallestNumberOfNucleotidesInDnaStrings":324,"biggestNumberOfNucleotidesInDnaStrings":466401,"gcContent":"51.9"}},"analysis":{"st":"2","mlst":"1_1_2_1_1_1_5","core":{"size":3911,"percentMatched":99.8,"percentAssemblyMatched":73.4},"resistanceProfile":{"AMP":{"name":"AMP","state":"RESISTANT","mechanisms":["TEM-1"]},"CEP":{"name":"CEP","state":"UNKNOWN","mechanisms":[]},"CHL":{"name":"CHL","state":"RESISTANT","mechanisms":["catA1"]},"CIP":{"name":"CIP","state":"UNKNOWN","mechanisms":[]},"NAL":{"name":"NAL","state":"UNKNOWN","mechanisms":[]},"SMX":{"name":"SMX","state":"RESISTANT","mechanisms":["sulI"]},"TMP":{"name":"TMP","state":"RESISTANT","mechanisms":["dfrA1"]},"SXT":{"name":"SXT","state":"RESISTANT","mechanisms":["sulI-dfrA1"]},"TCY":{"name":"TCY","state":"RESISTANT","mechanisms":["tetA","tetR"]},"AZM":{"name":"AZM","state":"UNKNOWN","mechanisms":[]},"SIL":{"name":"SIL","state":"UNKNOWN","mechanisms":[]}}}},"ODc5NzdkNzQtMGIwZi00OT":{"populationSubtype":"90370_404Ty_3.1","metadata":{"assemblyId":"ODc5NzdkNzQtMGIwZi00OT","speciesId":"90370","assemblyName":"10592_2_79_BurFas06-6055_2006","date":{"year":"2006"},"position":{"latitude":12.238333,"longitude":-1.561593},"pmid":"25961941","userDefined":{"country":"Burkina Faso","accuracy":"1","genotype":"3.1.1","strain":"06-6055","source":"Not provided","accession":"ERR360527","study accession":"ERP001718"},"metrics":{"totalNumberOfContigs":46,"assemblyN50Data":{"sequenceNumber":8,"sum":2490489,"sequenceLength":171911},"contigN50":171911,"sumsOfNucleotidesInDnaStrings":[531937,1006326,1460690,1707760,1927290,2133217,2318578,2490489,2648866,2802556,2951882,3096565,3240911,3371558,3501558,3620989,3734486,3832194,3913354,3994222,4067646,4130676,4191274,4250162,4306309,4354921,4398742,4442213,4485045,4518159,4550017,4581371,4612267,4634594,4654760,4670791,4683092,4693541,4702027,4709073,4715716,4722015,4725812,4728946,4731602,4732256],"totalNumberOfNucleotidesInDnaStrings":4732256,"totalNumberOfNsInDnaStrings":25,"averageNumberOfNucleotidesInDnaStrings":102875,"smallestNumberOfNucleotidesInDnaStrings":654,"biggestNumberOfNucleotidesInDnaStrings":531937,"gcContent":"52.1"}},"analysis":{"st":"2","mlst":"1_1_2_1_1_1_5","core":{"size":3912,"percentMatched":99.9,"percentAssemblyMatched":76},"resistanceProfile":{"AMP":{"name":"AMP","state":"UNKNOWN","mechanisms":[]},"CEP":{"name":"CEP","state":"UNKNOWN","mechanisms":[]},"CHL":{"name":"CHL","state":"RESISTANT","mechanisms":["catA1"]},"CIP":{"name":"CIP","state":"UNKNOWN","mechanisms":[]},"NAL":{"name":"NAL","state":"UNKNOWN","mechanisms":[]},"SMX":{"name":"SMX","state":"RESISTANT","mechanisms":["sulI"]},"TMP":{"name":"TMP","state":"RESISTANT","mechanisms":["dfrA1"]},"SXT":{"name":"SXT","state":"RESISTANT","mechanisms":["sulI-dfrA1"]},"TCY":{"name":"TCY","state":"UNKNOWN","mechanisms":[]},"AZM":{"name":"AZM","state":"UNKNOWN","mechanisms":[]},"SIL":{"name":"SIL","state":"UNKNOWN","mechanisms":[]}}}},"YWJiODkxZDctYjJjNy00OG":{"populationSubtype":"90370_404Ty_3.1","metadata":{"assemblyId":"YWJiODkxZDctYjJjNy00OG","speciesId":"90370","assemblyName":"10592_2_35_AlgE99-6646_1999","date":{"year":"1999"},"position":{"latitude":28.033886,"longitude":1.659626},"pmid":"25961941","userDefined":{"country":"Algeria","accuracy":"1","genotype":"3.1.0","strain":"E99-6646","source":"Not provided","accession":"ERR360483","study accession":"ERP001718"},"metrics":{"totalNumberOfContigs":43,"assemblyN50Data":{"sequenceNumber":9,"sum":2520565,"sequenceLength":204501},"contigN50":204501,"sumsOfNucleotidesInDnaStrings":[531557,925297,1178474,1428142,1673121,1892197,2110036,2316064,2520565,2705451,2881994,3053918,3215584,3369282,3518586,3663286,3798870,3912372,4010289,4096516,4159420,4220038,4276195,4329245,4377901,4421733,4465297,4508127,4541241,4572959,4603862,4630292,4652607,4672773,4685103,4693604,4700667,4707308,4711787,4716157,4719952,4722615,4723271],"totalNumberOfNucleotidesInDnaStrings":4723271,"totalNumberOfNsInDnaStrings":39,"averageNumberOfNucleotidesInDnaStrings":109843,"smallestNumberOfNucleotidesInDnaStrings":656,"biggestNumberOfNucleotidesInDnaStrings":531557,"gcContent":"52.1"}},"analysis":{"st":"WS73","mlst":"1_1_2_WM23_1_1_5","core":{"size":3915,"percentMatched":99.9,"percentAssemblyMatched":76.3},"resistanceProfile":{"AMP":{"name":"AMP","state":"UNKNOWN","mechanisms":[]},"CEP":{"name":"CEP","state":"UNKNOWN","mechanisms":[]},"CHL":{"name":"CHL","state":"UNKNOWN","mechanisms":[]},"CIP":{"name":"CIP","state":"UNKNOWN","mechanisms":[]},"NAL":{"name":"NAL","state":"UNKNOWN","mechanisms":[]},"SMX":{"name":"SMX","state":"UNKNOWN","mechanisms":[]},"TMP":{"name":"TMP","state":"UNKNOWN","mechanisms":[]},"SXT":{"name":"SXT","state":"UNKNOWN","mechanisms":[]},"TCY":{"name":"TCY","state":"UNKNOWN","mechanisms":[]},"AZM":{"name":"AZM","state":"UNKNOWN","mechanisms":[]},"SIL":{"name":"SIL","state":"UNKNOWN","mechanisms":[]}}}},"Mjg4MDMyYTQtMzM3NS00NT":{"populationSubtype":"90370_404Ty_3.1","metadata":{"assemblyId":"Mjg4MDMyYTQtMzM3NS00NT","speciesId":"90370","assemblyName":"10492_1_1_LebMDUST106_2006","date":{"year":"2006"},"position":{"latitude":33.854721,"longitude":35.862285},"pmid":"25961941","userDefined":{"country":"Lebanon","accuracy":"1","genotype":"3.1.0","strain":"MDUST106","source":"Blood","accession":"ERR352254","study accession":"ERP001718"},"metrics":{"totalNumberOfContigs":43,"assemblyN50Data":{"sequenceNumber":9,"sum":2473200,"sequenceLength":206109},"contigN50":206109,"sumsOfNucleotidesInDnaStrings":[466607,860169,1116629,1369968,1619558,1838618,2056663,2267091,2473200,2677495,2860201,3032051,3195116,3348823,3498191,3642950,3778580,3892101,3990087,4082336,4169438,4234141,4297209,4357849,4414066,4457953,4501385,4544246,4577377,4608321,4634640,4656969,4677179,4689549,4698140,4705238,4711887,4716382,4719822,4722804,4725524,4726786,4727437],"totalNumberOfNucleotidesInDnaStrings":4727437,"totalNumberOfNsInDnaStrings":106,"averageNumberOfNucleotidesInDnaStrings":109940,"smallestNumberOfNucleotidesInDnaStrings":651,"biggestNumberOfNucleotidesInDnaStrings":466607,"gcContent":"52.1"}},"analysis":{"st":"2","mlst":"1_1_2_1_1_1_5","core":{"size":3917,"percentMatched":100,"percentAssemblyMatched":76.2},"resistanceProfile":{"AMP":{"name":"AMP","state":"UNKNOWN","mechanisms":[]},"CEP":{"name":"CEP","state":"UNKNOWN","mechanisms":[]},"CHL":{"name":"CHL","state":"UNKNOWN","mechanisms":[]},"CIP":{"name":"CIP","state":"UNKNOWN","mechanisms":[]},"NAL":{"name":"NAL","state":"UNKNOWN","mechanisms":[]},"SMX":{"name":"SMX","state":"UNKNOWN","mechanisms":[]},"TMP":{"name":"TMP","state":"UNKNOWN","mechanisms":[]},"SXT":{"name":"SXT","state":"UNKNOWN","mechanisms":[]},"TCY":{"name":"TCY","state":"UNKNOWN","mechanisms":[]},"AZM":{"name":"AZM","state":"UNKNOWN","mechanisms":[]},"SIL":{"name":"SIL","state":"UNKNOWN","mechanisms":[]}}}},"MWY5ZDQ2NzUtZTllOS00Zj":{"populationSubtype":"90370_404Ty_3.1","metadata":{"assemblyId":"MWY5ZDQ2NzUtZTllOS00Zj","speciesId":"90370","assemblyName":"10349_1_43_Indo091092_2009","date":{"year":"2009"},"position":{"latitude":-0.789275,"longitude":113.921327},"pmid":"25961941","userDefined":{"country":"Indonesia","accuracy":"1","genotype":"3.1.2","strain":"ERL091092","source":"Blood","accession":"ERR343291","study accession":"ERP001718"},"metrics":{"totalNumberOfContigs":58,"assemblyN50Data":{"sequenceNumber":10,"sum":2527196,"sequenceLength":173313},"contigN50":173313,"sumsOfNucleotidesInDnaStrings":[466706,781783,1044679,1294909,1540024,1757914,1963994,2168374,2353883,2527196,2699234,2862371,3016041,3169461,3318919,3463701,3599285,3729140,3842742,3940595,4021442,4084599,4145294,4201509,4255645,4304350,4348154,4391773,4435199,4478085,4511185,4543043,4573887,4600171,4624939,4647219,4667350,4679686,4691110,4699569,4706793,4713867,4720486,4726785,4731115,4734902,4738257,4741391,4744339,4746992,4748728,4750074,4751336,4752196,4752848,4753322,4753687,4754034],"totalNumberOfNucleotidesInDnaStrings":4754034,"totalNumberOfNsInDnaStrings":11309,"averageNumberOfNucleotidesInDnaStrings":81966,"smallestNumberOfNucleotidesInDnaStrings":347,"biggestNumberOfNucleotidesInDnaStrings":466706,"gcContent":"52.0"}},"analysis":{"st":"2","mlst":"1_1_2_1_1_1_5","core":{"size":3897,"percentMatched":99.5,"percentAssemblyMatched":75.3},"resistanceProfile":{"AMP":{"name":"AMP","state":"UNKNOWN","mechanisms":[]},"CEP":{"name":"CEP","state":"UNKNOWN","mechanisms":[]},"CHL":{"name":"CHL","state":"UNKNOWN","mechanisms":[]},"CIP":{"name":"CIP","state":"UNKNOWN","mechanisms":[]},"NAL":{"name":"NAL","state":"UNKNOWN","mechanisms":[]},"SMX":{"name":"SMX","state":"UNKNOWN","mechanisms":[]},"TMP":{"name":"TMP","state":"UNKNOWN","mechanisms":[]},"SXT":{"name":"SXT","state":"UNKNOWN","mechanisms":[]},"TCY":{"name":"TCY","state":"UNKNOWN","mechanisms":[]},"AZM":{"name":"AZM","state":"UNKNOWN","mechanisms":[]},"SIL":{"name":"SIL","state":"UNKNOWN","mechanisms":[]}}}},"NjE1ZGI4NjEtZDc0MS00OW":{"populationSubtype":"90370_404Ty_3.1","metadata":{"assemblyId":"NjE1ZGI4NjEtZDc0MS00OW","speciesId":"90370","assemblyName":"10592_2_74_MorE99-7012_1999","date":{"year":"1999"},"position":{"latitude":31.791702,"longitude":-7.09262},"pmid":"25961941","userDefined":{"country":"Morocco","accuracy":"1","genotype":"3.1.0","strain":"E99-7012","source":"Not provided","accession":"ERR360522","study accession":"ERP001718"},"metrics":{"totalNumberOfContigs":47,"assemblyN50Data":{"sequenceNumber":10,"sum":2485440,"sequenceLength":173355},"contigN50":173355,"sumsOfNucleotidesInDnaStrings":[466367,749916,1002776,1252926,1497796,1716739,1922845,2127130,2312085,2485440,2657343,2820436,2974146,3123540,3268323,3412672,3549394,3662883,3760816,3853066,3934289,4015145,4088553,4153298,4216318,4276972,4335544,4391801,4436864,4480776,4523606,4556768,4588604,4614969,4641261,4663606,4676003,4684547,4692270,4699321,4705991,4710470,4714842,4718770,4722582,4725254,4725621],"totalNumberOfNucleotidesInDnaStrings":4725621,"totalNumberOfNsInDnaStrings":10,"averageNumberOfNucleotidesInDnaStrings":100545,"smallestNumberOfNucleotidesInDnaStrings":367,"biggestNumberOfNucleotidesInDnaStrings":466367,"gcContent":"52.1"}},"analysis":{"st":"2","mlst":"1_1_2_1_1_1_5","core":{"size":3917,"percentMatched":100,"percentAssemblyMatched":76.3},"resistanceProfile":{"AMP":{"name":"AMP","state":"UNKNOWN","mechanisms":[]},"CEP":{"name":"CEP","state":"UNKNOWN","mechanisms":[]},"CHL":{"name":"CHL","state":"UNKNOWN","mechanisms":[]},"CIP":{"name":"CIP","state":"UNKNOWN","mechanisms":[]},"NAL":{"name":"NAL","state":"UNKNOWN","mechanisms":[]},"SMX":{"name":"SMX","state":"UNKNOWN","mechanisms":[]},"TMP":{"name":"TMP","state":"UNKNOWN","mechanisms":[]},"SXT":{"name":"SXT","state":"UNKNOWN","mechanisms":[]},"TCY":{"name":"TCY","state":"UNKNOWN","mechanisms":[]},"AZM":{"name":"AZM","state":"UNKNOWN","mechanisms":[]},"SIL":{"name":"SIL","state":"UNKNOWN","mechanisms":[]}}}},"NGFiMDM2YWQtYzFhNS00OD":{"populationSubtype":"90370_404Ty_3.1","metadata":{"assemblyId":"NGFiMDM2YWQtYzFhNS00OD","speciesId":"90370","assemblyName":"10593_2_74_France_African_meal09-2597_2009","date":{"year":"2009"},"position":{"latitude":46.227638,"longitude":2.213749},"pmid":"25961941","userDefined":{"country":"France (African meal)","accuracy":"1","genotype":"3.1.1","strain":"09-2597","source":"Not provided","accession":"ERR360687","study accession":"ERP001718"},"metrics":{"totalNumberOfContigs":49,"assemblyN50Data":{"sequenceNumber":7,"sum":2454434,"sequenceLength":205910},"contigN50":205910,"sumsOfNucleotidesInDnaStrings":[923695,1316550,1566474,1811829,2030696,2248524,2454434,2630954,2802937,2961506,3115185,3264489,3410858,3555564,3673524,3771245,3858340,3939519,4004585,4067591,4128219,4184383,4238869,4292322,4340981,4387274,4433509,4478846,4522656,4566181,4609015,4648027,4681116,4712931,4743801,4774269,4801212,4823514,4843681,4855986,4866879,4876638,4885153,4892202,4898839,4903323,4905986,4907803,4908469],"totalNumberOfNucleotidesInDnaStrings":4908469,"totalNumberOfNsInDnaStrings":21,"averageNumberOfNucleotidesInDnaStrings":100172,"smallestNumberOfNucleotidesInDnaStrings":666,"biggestNumberOfNucleotidesInDnaStrings":923695,"gcContent":"51.9"}},"analysis":{"st":"2","mlst":"1_1_2_1_1_1_5","core":{"size":3912,"percentMatched":99.9,"percentAssemblyMatched":73.2},"resistanceProfile":{"AMP":{"name":"AMP","state":"RESISTANT","mechanisms":["TEM-1"]},"CEP":{"name":"CEP","state":"UNKNOWN","mechanisms":[]},"CHL":{"name":"CHL","state":"RESISTANT","mechanisms":["catA1"]},"CIP":{"name":"CIP","state":"UNKNOWN","mechanisms":[]},"NAL":{"name":"NAL","state":"UNKNOWN","mechanisms":[]},"SMX":{"name":"SMX","state":"RESISTANT","mechanisms":["sulI"]},"TMP":{"name":"TMP","state":"RESISTANT","mechanisms":["dfrA1"]},"SXT":{"name":"SXT","state":"RESISTANT","mechanisms":["sulI-dfrA1"]},"TCY":{"name":"TCY","state":"RESISTANT","mechanisms":["tetR","tetA"]},"AZM":{"name":"AZM","state":"UNKNOWN","mechanisms":[]},"SIL":{"name":"SIL","state":"UNKNOWN","mechanisms":[]}}}},"NGEyNWM4ZjgtZjM4Zi00NG":{"populationSubtype":"90370_404Ty_3.1","metadata":{"assemblyId":"NGEyNWM4ZjgtZjM4Zi00NG","speciesId":"90370","assemblyName":"10593_2_77_CamerIPCN_2005","date":{"year":"2005"},"position":{"latitude":7.369722,"longitude":12.354722},"pmid":"25961941","userDefined":{"country":"Cameroon","accuracy":"1","genotype":"3.1.1","strain":"IPCN","source":"Not provided","accession":"ERR360690","study accession":"ERP001718"},"metrics":{"totalNumberOfContigs":49,"assemblyN50Data":{"sequenceNumber":9,"sum":2522940,"sequenceLength":205789},"contigN50":205789,"sumsOfNucleotidesInDnaStrings":[466380,859239,1153149,1406176,1651461,1880325,2099269,2317151,2522940,2727225,2912644,3071064,3226087,3379795,3529191,3673974,3815754,3951474,4064990,4152087,4217278,4280320,4340916,4397096,4445672,4492810,4539116,4585106,4627949,4661079,4692976,4724330,4755229,4785697,4808016,4828173,4845202,4857528,4867281,4875785,4882842,4889499,4895904,4899699,4902750,4905429,4907237,4908499,4909161],"totalNumberOfNucleotidesInDnaStrings":4909161,"totalNumberOfNsInDnaStrings":10,"averageNumberOfNucleotidesInDnaStrings":100186,"smallestNumberOfNucleotidesInDnaStrings":662,"biggestNumberOfNucleotidesInDnaStrings":466380,"gcContent":"51.9"}},"analysis":{"st":"2","mlst":"1_1_2_1_1_1_5","core":{"size":3911,"percentMatched":99.8,"percentAssemblyMatched":73.2},"resistanceProfile":{"AMP":{"name":"AMP","state":"RESISTANT","mechanisms":["TEM-1"]},"CEP":{"name":"CEP","state":"UNKNOWN","mechanisms":[]},"CHL":{"name":"CHL","state":"RESISTANT","mechanisms":["catA1"]},"CIP":{"name":"CIP","state":"UNKNOWN","mechanisms":[]},"NAL":{"name":"NAL","state":"UNKNOWN","mechanisms":[]},"SMX":{"name":"SMX","state":"RESISTANT","mechanisms":["sulI"]},"TMP":{"name":"TMP","state":"RESISTANT","mechanisms":["dfrA1"]},"SXT":{"name":"SXT","state":"RESISTANT","mechanisms":["sulI-dfrA1"]},"TCY":{"name":"TCY","state":"RESISTANT","mechanisms":["tetR","tetA"]},"AZM":{"name":"AZM","state":"UNKNOWN","mechanisms":[]},"SIL":{"name":"SIL","state":"UNKNOWN","mechanisms":[]}}}},"NTc5MGJkZTMtZGI1My00OT":{"populationSubtype":"90370_404Ty_3.1","metadata":{"assemblyId":"NTc5MGJkZTMtZGI1My00OT","speciesId":"90370","assemblyName":"10071_3_75_IndoA105_2012","date":{"year":"2012"},"position":{"latitude":-0.789275,"longitude":113.921327},"pmid":"25961941","userDefined":{"country":"Indonesia","accuracy":"1","genotype":"3.1.2","strain":"A105","source":"Blood","accession":"ERR338051","study accession":"ERP001718"},"metrics":{"totalNumberOfContigs":39,"assemblyN50Data":{"sequenceNumber":7,"sum":2522107,"sequenceLength":219203},"contigN50":219203,"sumsOfNucleotidesInDnaStrings":[506949,973345,1430228,1830248,2082945,2302904,2522107,2728159,2913756,3089233,3261269,3414999,3565820,3710603,3850981,3964713,4062643,4155030,4220571,4283626,4344280,4400633,4444466,4487904,4530677,4563839,4595581,4626510,4648855,4665219,4677612,4688851,4697382,4704504,4711329,4715831,4719663,4723468,4726211],"totalNumberOfNucleotidesInDnaStrings":4726211,"totalNumberOfNsInDnaStrings":11,"averageNumberOfNucleotidesInDnaStrings":121184,"smallestNumberOfNucleotidesInDnaStrings":2743,"biggestNumberOfNucleotidesInDnaStrings":506949,"gcContent":"52.1"}},"analysis":{"st":"2","mlst":"1_1_2_1_1_1_5","core":{"size":3915,"percentMatched":99.9,"percentAssemblyMatched":76.1},"resistanceProfile":{"AMP":{"name":"AMP","state":"UNKNOWN","mechanisms":[]},"CEP":{"name":"CEP","state":"UNKNOWN","mechanisms":[]},"CHL":{"name":"CHL","state":"UNKNOWN","mechanisms":[]},"CIP":{"name":"CIP","state":"UNKNOWN","mechanisms":[]},"NAL":{"name":"NAL","state":"UNKNOWN","mechanisms":[]},"SMX":{"name":"SMX","state":"UNKNOWN","mechanisms":[]},"TMP":{"name":"TMP","state":"UNKNOWN","mechanisms":[]},"SXT":{"name":"SXT","state":"UNKNOWN","mechanisms":[]},"TCY":{"name":"TCY","state":"UNKNOWN","mechanisms":[]},"AZM":{"name":"AZM","state":"UNKNOWN","mechanisms":[]},"SIL":{"name":"SIL","state":"UNKNOWN","mechanisms":[]}}}},"OGQ1MDdjNzUtNGNlZC00YT":{"populationSubtype":"90370_404Ty_3.1","metadata":{"assemblyId":"OGQ1MDdjNzUtNGNlZC00YT","speciesId":"90370","assemblyName":"10492_1_3_MaltaMDUST120_2009","date":{"year":"2009"},"position":{"latitude":35.937496,"longitude":14.375416},"pmid":"25961941","userDefined":{"country":"Malta","accuracy":"1","genotype":"3.1.0","strain":"MDUST120","source":"Stool","accession":"ERR352256","study accession":"ERP001718"},"metrics":{"totalNumberOfContigs":44,"assemblyN50Data":{"sequenceNumber":9,"sum":2463338,"sequenceLength":204291},"contigN50":204291,"sumsOfNucleotidesInDnaStrings":[466374,859414,1112644,1365370,1615488,1835090,2052956,2259047,2463338,2648975,2825605,2997570,3160367,3314083,3463519,3608302,3743941,3857455,3955469,4047744,4134763,4197860,4258514,4314771,4368350,4412068,4455499,4498358,4532248,4565410,4596381,4622688,4645033,4665260,4677657,4688870,4697489,4704615,4711291,4716427,4721109,4724921,4727668,4728332],"totalNumberOfNucleotidesInDnaStrings":4728332,"totalNumberOfNsInDnaStrings":98,"averageNumberOfNucleotidesInDnaStrings":107462,"smallestNumberOfNucleotidesInDnaStrings":664,"biggestNumberOfNucleotidesInDnaStrings":466374,"gcContent":"52.1"}},"analysis":{"st":"2","mlst":"1_1_2_1_1_1_5","core":{"size":3917,"percentMatched":100,"percentAssemblyMatched":76.2},"resistanceProfile":{"AMP":{"name":"AMP","state":"UNKNOWN","mechanisms":[]},"CEP":{"name":"CEP","state":"UNKNOWN","mechanisms":[]},"CHL":{"name":"CHL","state":"UNKNOWN","mechanisms":[]},"CIP":{"name":"CIP","state":"UNKNOWN","mechanisms":[]},"NAL":{"name":"NAL","state":"UNKNOWN","mechanisms":[]},"SMX":{"name":"SMX","state":"UNKNOWN","mechanisms":[]},"TMP":{"name":"TMP","state":"UNKNOWN","mechanisms":[]},"SXT":{"name":"SXT","state":"UNKNOWN","mechanisms":[]},"TCY":{"name":"TCY","state":"UNKNOWN","mechanisms":[]},"AZM":{"name":"AZM","state":"UNKNOWN","mechanisms":[]},"SIL":{"name":"SIL","state":"UNKNOWN","mechanisms":[]}}}},"NjhiOTBjMDUtODg1ZS00NG":{"populationSubtype":"90370_404Ty_3.1","metadata":{"assemblyId":"NjhiOTBjMDUtODg1ZS00NG","speciesId":"90370","assemblyName":"10060_5_39_IndoA249_2010","date":{"year":"2010"},"position":{"latitude":-0.789275,"longitude":113.921327},"pmid":"25961941","userDefined":{"country":"Indonesia","accuracy":"1","genotype":"3.1.2","strain":"A249","source":"Blood","accession":"ERR331242","study accession":"ERP001718"},"metrics":{"totalNumberOfContigs":45,"assemblyN50Data":{"sequenceNumber":9,"sum":2560863,"sequenceLength":206054},"contigN50":206054,"sumsOfNucleotidesInDnaStrings":[479943,942107,1198551,1448738,1698319,1928368,2147454,2354809,2560863,2745772,2924348,3096311,3250028,3401229,3550607,3695366,3808880,3906856,3999071,4079496,4144439,4207400,4268035,4324273,4379964,4423857,4467191,4510065,4543227,4575070,4606022,4632350,4654695,4674883,4687261,4695842,4702949,4709643,4714145,4717350,4720078,4720797,4721495,4722155,4722592],"totalNumberOfNucleotidesInDnaStrings":4722592,"totalNumberOfNsInDnaStrings":4,"averageNumberOfNucleotidesInDnaStrings":104946,"smallestNumberOfNucleotidesInDnaStrings":437,"biggestNumberOfNucleotidesInDnaStrings":479943,"gcContent":"52.1"}},"analysis":{"st":"2","mlst":"1_1_2_1_1_1_5","core":{"size":3914,"percentMatched":99.9,"percentAssemblyMatched":76.2},"resistanceProfile":{"AMP":{"name":"AMP","state":"UNKNOWN","mechanisms":[]},"CEP":{"name":"CEP","state":"UNKNOWN","mechanisms":[]},"CHL":{"name":"CHL","state":"UNKNOWN","mechanisms":[]},"CIP":{"name":"CIP","state":"UNKNOWN","mechanisms":[]},"NAL":{"name":"NAL","state":"UNKNOWN","mechanisms":[]},"SMX":{"name":"SMX","state":"UNKNOWN","mechanisms":[]},"TMP":{"name":"TMP","state":"UNKNOWN","mechanisms":[]},"SXT":{"name":"SXT","state":"UNKNOWN","mechanisms":[]},"TCY":{"name":"TCY","state":"UNKNOWN","mechanisms":[]},"AZM":{"name":"AZM","state":"UNKNOWN","mechanisms":[]},"SIL":{"name":"SIL","state":"UNKNOWN","mechanisms":[]}}}},"ZmVjMzIyNTUtNGMwZi00ZW":{"populationSubtype":"90370_404Ty_3.1","metadata":{"assemblyId":"ZmVjMzIyNTUtNGMwZi00ZW","speciesId":"90370","assemblyName":"9953_5_60_IndoA399_2009","date":{"year":"2009"},"position":{"latitude":-0.789275,"longitude":113.921327},"pmid":"25961941","userDefined":{"country":"Indonesia","accuracy":"1","genotype":"3.1.2","strain":"A399","source":"Blood","accession":"ERR326656","study accession":"ERP001718"},"metrics":{"totalNumberOfContigs":75,"assemblyN50Data":{"sequenceNumber":8,"sum":2436237,"sequenceLength":206086},"contigN50":206086,"sumsOfNucleotidesInDnaStrings":[498839,942640,1238654,1534639,1784245,2010445,2230151,2436237,2640533,2813875,2968891,3122470,3271853,3418218,3562982,3706501,3820012,3917998,4010406,4090846,4155577,4218660,4279300,4335543,4388967,4432865,4471924,4505086,4536948,4567905,4594238,4616583,4636789,4653867,4666250,4677518,4686109,4693221,4699909,4704830,4709320,4712675,4715408,4717422,4719432,4721251,4723040,4724700,4725857,4726576,4727270,4727929,4728485,4729025,4729564,4730070,4730576,4731034,4731490,4731895,4732285,4732673,4733053,4733425,4733790,4734147,4734502,4734845,4735183,4735519,4735853,4736180,4736503,4736809,4737115],"totalNumberOfNucleotidesInDnaStrings":4737115,"totalNumberOfNsInDnaStrings":4,"averageNumberOfNucleotidesInDnaStrings":63161,"smallestNumberOfNucleotidesInDnaStrings":306,"biggestNumberOfNucleotidesInDnaStrings":498839,"gcContent":"52.1"}},"analysis":{"st":"2","mlst":"1_1_2_1_1_1_5","core":{"size":3913,"percentMatched":99.9,"percentAssemblyMatched":76},"resistanceProfile":{"AMP":{"name":"AMP","state":"UNKNOWN","mechanisms":[]},"CEP":{"name":"CEP","state":"UNKNOWN","mechanisms":[]},"CHL":{"name":"CHL","state":"UNKNOWN","mechanisms":[]},"CIP":{"name":"CIP","state":"UNKNOWN","mechanisms":[]},"NAL":{"name":"NAL","state":"UNKNOWN","mechanisms":[]},"SMX":{"name":"SMX","state":"UNKNOWN","mechanisms":[]},"TMP":{"name":"TMP","state":"UNKNOWN","mechanisms":[]},"SXT":{"name":"SXT","state":"UNKNOWN","mechanisms":[]},"TCY":{"name":"TCY","state":"UNKNOWN","mechanisms":[]},"AZM":{"name":"AZM","state":"UNKNOWN","mechanisms":[]},"SIL":{"name":"SIL","state":"UNKNOWN","mechanisms":[]}}}},"Njg3YzdiODQtNTViYS00OG":{"populationSubtype":"90370_404Ty_3.1","metadata":{"assemblyId":"Njg3YzdiODQtNTViYS00OG","speciesId":"90370","assemblyName":"10593_2_17_Ben04-7167_2004","date":{"year":"2004"},"position":{"latitude":9.30769,"longitude":2.315834},"pmid":"25961941","userDefined":{"country":"Benin","accuracy":"1","genotype":"3.1.1","strain":"04-7167","source":"Not provided","accession":"ERR360630","study accession":"ERP001718"},"metrics":{"totalNumberOfContigs":50,"assemblyN50Data":{"sequenceNumber":8,"sum":2544142,"sequenceLength":204283},"contigN50":204283,"sumsOfNucleotidesInDnaStrings":[531945,1000234,1419984,1669563,1914832,2133780,2339859,2544142,2729517,2902772,3061163,3216165,3369850,3519168,3663881,3781655,3879370,3971666,4052841,4133709,4196494,4257097,4313269,4367758,4421142,4469747,4515737,4560859,4604693,4647531,4680640,4712479,4743373,4765689,4787112,4807272,4824272,4836596,4847493,4857493,4866007,4873066,4879709,4886008,4890495,4893629,4896294,4898161,4898828,4899138],"totalNumberOfNucleotidesInDnaStrings":4899138,"totalNumberOfNsInDnaStrings":16,"averageNumberOfNucleotidesInDnaStrings":97982,"smallestNumberOfNucleotidesInDnaStrings":310,"biggestNumberOfNucleotidesInDnaStrings":531945,"gcContent":"51.9"}},"analysis":{"st":"2","mlst":"1_1_2_1_1_1_5","core":{"size":3912,"percentMatched":99.9,"percentAssemblyMatched":73.4},"resistanceProfile":{"AMP":{"name":"AMP","state":"RESISTANT","mechanisms":["TEM-1"]},"CEP":{"name":"CEP","state":"UNKNOWN","mechanisms":[]},"CHL":{"name":"CHL","state":"RESISTANT","mechanisms":["catA1"]},"CIP":{"name":"CIP","state":"UNKNOWN","mechanisms":[]},"NAL":{"name":"NAL","state":"UNKNOWN","mechanisms":[]},"SMX":{"name":"SMX","state":"RESISTANT","mechanisms":["sulI"]},"TMP":{"name":"TMP","state":"RESISTANT","mechanisms":["dfrA1"]},"SXT":{"name":"SXT","state":"RESISTANT","mechanisms":["sulI-dfrA1"]},"TCY":{"name":"TCY","state":"UNKNOWN","mechanisms":[]},"AZM":{"name":"AZM","state":"UNKNOWN","mechanisms":[]},"SIL":{"name":"SIL","state":"UNKNOWN","mechanisms":[]}}}},"ZjMzODFlYTItNWI3My00Yz":{"populationSubtype":"90370_404Ty_3.1","metadata":{"assemblyId":"ZjMzODFlYTItNWI3My00Yz","speciesId":"90370","assemblyName":"9953_5_15_IndoA282_2010","date":{"year":"2010"},"position":{"latitude":-0.789275,"longitude":113.921327},"pmid":"25961941","userDefined":{"country":"Indonesia","accuracy":"1","genotype":"3.1.2","strain":"A282","source":"Blood","accession":"ERR326611","study accession":"ERP001718"},"metrics":{"totalNumberOfContigs":47,"assemblyN50Data":{"sequenceNumber":8,"sum":2430023,"sequenceLength":206062},"contigN50":206062,"sumsOfNucleotidesInDnaStrings":[512094,974256,1249515,1502757,1755482,2005083,2223961,2430023,2634326,2807670,2962908,3116549,3265932,3412270,3557029,3692639,3806153,3904110,3998013,4062744,4125822,4186430,4242673,4291238,4335136,4378857,4422207,4465080,4504172,4537334,4569211,4600168,4622513,4642698,4659768,4672146,4683383,4691968,4699079,4705751,4710247,4714490,4718302,4721003,4721678,4722041,4722346],"totalNumberOfNucleotidesInDnaStrings":4722346,"totalNumberOfNsInDnaStrings":7,"averageNumberOfNucleotidesInDnaStrings":100475,"smallestNumberOfNucleotidesInDnaStrings":305,"biggestNumberOfNucleotidesInDnaStrings":512094,"gcContent":"52.1"}},"analysis":{"st":"2","mlst":"1_1_2_1_1_1_5","core":{"size":3914,"percentMatched":99.9,"percentAssemblyMatched":76.2},"resistanceProfile":{"AMP":{"name":"AMP","state":"UNKNOWN","mechanisms":[]},"CEP":{"name":"CEP","state":"UNKNOWN","mechanisms":[]},"CHL":{"name":"CHL","state":"UNKNOWN","mechanisms":[]},"CIP":{"name":"CIP","state":"UNKNOWN","mechanisms":[]},"NAL":{"name":"NAL","state":"UNKNOWN","mechanisms":[]},"SMX":{"name":"SMX","state":"UNKNOWN","mechanisms":[]},"TMP":{"name":"TMP","state":"UNKNOWN","mechanisms":[]},"SXT":{"name":"SXT","state":"UNKNOWN","mechanisms":[]},"TCY":{"name":"TCY","state":"UNKNOWN","mechanisms":[]},"AZM":{"name":"AZM","state":"UNKNOWN","mechanisms":[]},"SIL":{"name":"SIL","state":"UNKNOWN","mechanisms":[]}}}},"ZDNhNDNlY2MtYjQ4Yi00Nj":{"populationSubtype":"90370_404Ty_3.1","metadata":{"assemblyId":"ZDNhNDNlY2MtYjQ4Yi00Nj","speciesId":"90370","assemblyName":"10593_2_30_BenE02-1739_2002","date":{"year":"2002"},"position":{"latitude":9.30769,"longitude":2.315834},"pmid":"25961941","userDefined":{"country":"Benin","accuracy":"1","genotype":"3.1.1","strain":"E02-1739","source":"Not provided","accession":"ERR360643","study accession":"ERP001718"},"metrics":{"totalNumberOfContigs":44,"assemblyN50Data":{"sequenceNumber":7,"sum":2410857,"sequenceLength":199986},"contigN50":199986,"sumsOfNucleotidesInDnaStrings":[672858,1130093,1522956,1772662,1992800,2210871,2410857,2596549,2769803,2941750,3100249,3253953,3403334,3548110,3683649,3797154,3894986,3992678,4085051,4172145,4237242,4300203,4360857,4417099,4460995,4503843,4545413,4578524,4610434,4641391,4667695,4690001,4710221,4722603,4731222,4738336,4744998,4751508,4756642,4760445,4764076,4767666,4770398,4771061],"totalNumberOfNucleotidesInDnaStrings":4771061,"totalNumberOfNsInDnaStrings":3,"averageNumberOfNucleotidesInDnaStrings":108433,"smallestNumberOfNucleotidesInDnaStrings":663,"biggestNumberOfNucleotidesInDnaStrings":672858,"gcContent":"52.1"}},"analysis":{"st":"2","mlst":"1_1_2_1_1_1_5","core":{"size":3912,"percentMatched":99.9,"percentAssemblyMatched":75.3},"resistanceProfile":{"AMP":{"name":"AMP","state":"RESISTANT","mechanisms":["TEM-1"]},"CEP":{"name":"CEP","state":"UNKNOWN","mechanisms":[]},"CHL":{"name":"CHL","state":"UNKNOWN","mechanisms":[]},"CIP":{"name":"CIP","state":"UNKNOWN","mechanisms":[]},"NAL":{"name":"NAL","state":"UNKNOWN","mechanisms":[]},"SMX":{"name":"SMX","state":"RESISTANT","mechanisms":["sulII"]},"TMP":{"name":"TMP","state":"RESISTANT","mechanisms":["dfrA14"]},"SXT":{"name":"SXT","state":"RESISTANT","mechanisms":["sulII-dfrA14"]},"TCY":{"name":"TCY","state":"UNKNOWN","mechanisms":[]},"AZM":{"name":"AZM","state":"UNKNOWN","mechanisms":[]},"SIL":{"name":"SIL","state":"UNKNOWN","mechanisms":[]}}}},"NjNkOTk0ZDUtZTg0ZC00Yz":{"populationSubtype":"90370_404Ty_3.1","metadata":{"assemblyId":"NjNkOTk0ZDUtZTg0ZC00Yz","speciesId":"90370","assemblyName":"10592_2_52_Africa09-4584_2009","date":{"year":"2009"},"position":{"latitude":-8.783195,"longitude":34.508523},"pmid":"25961941","userDefined":{"country":"Africa","accuracy":"9","genotype":"3.1.1","strain":"09-4584","source":"Not provided","accession":"ERR360500","study accession":"ERP001718"},"metrics":{"totalNumberOfContigs":42,"assemblyN50Data":{"sequenceNumber":8,"sum":2395535,"sequenceLength":185025},"contigN50":185025,"sumsOfNucleotidesInDnaStrings":[719460,1139190,1384067,1601922,1807788,2012206,2210510,2395535,2568778,2740684,2899183,3056127,3205498,3350243,3480889,3609760,3729201,3827033,3919110,3999965,4080743,4145827,4208699,4269259,4325414,4370754,4414639,4457491,4490580,4522417,4553280,4575579,4595730,4608025,4618461,4627003,4634092,4640719,4647018,4651497,4654224,4654888],"totalNumberOfNucleotidesInDnaStrings":4654888,"totalNumberOfNsInDnaStrings":39,"averageNumberOfNucleotidesInDnaStrings":110830,"smallestNumberOfNucleotidesInDnaStrings":664,"biggestNumberOfNucleotidesInDnaStrings":719460,"gcContent":"52.2"}},"analysis":{"st":"2","mlst":"1_1_2_1_1_1_5","core":{"size":3910,"percentMatched":99.8,"percentAssemblyMatched":77.2},"resistanceProfile":{"AMP":{"name":"AMP","state":"UNKNOWN","mechanisms":[]},"CEP":{"name":"CEP","state":"UNKNOWN","mechanisms":[]},"CHL":{"name":"CHL","state":"RESISTANT","mechanisms":["catA1"]},"CIP":{"name":"CIP","state":"UNKNOWN","mechanisms":[]},"NAL":{"name":"NAL","state":"UNKNOWN","mechanisms":[]},"SMX":{"name":"SMX","state":"RESISTANT","mechanisms":["sulI"]},"TMP":{"name":"TMP","state":"RESISTANT","mechanisms":["dfrA1"]},"SXT":{"name":"SXT","state":"RESISTANT","mechanisms":["sulI-dfrA1"]},"TCY":{"name":"TCY","state":"UNKNOWN","mechanisms":[]},"AZM":{"name":"AZM","state":"UNKNOWN","mechanisms":[]},"SIL":{"name":"SIL","state":"UNKNOWN","mechanisms":[]}}}},"NWMwMjUyOTQtY2FhNC00Mz":{"populationSubtype":"90370_404Ty_3.1","metadata":{"assemblyId":"NWMwMjUyOTQtY2FhNC00Mz","speciesId":"90370","assemblyName":"10493_1_1_LibMDUST108_2007","date":{"year":"2007"},"position":{"latitude":6.428055,"longitude":-9.429499},"pmid":"25961941","userDefined":{"country":"Liberia","accuracy":"1","genotype":"3.1.0","strain":"MDUST108","source":"Stool","accession":"ERR352426","study accession":"ERP001718"},"metrics":{"totalNumberOfContigs":43,"assemblyN50Data":{"sequenceNumber":9,"sum":2466547,"sequenceLength":204331},"contigN50":204331,"sumsOfNucleotidesInDnaStrings":[466665,859578,1115457,1368105,1618119,1838256,2056173,2262216,2466547,2651961,2825210,2997197,3160471,3314227,3463602,3608413,3744029,3857532,3955518,4047928,4128795,4191920,4252602,4308835,4362455,4406395,4449822,4492668,4529800,4563017,4594016,4620979,4647412,4669753,4682161,4693381,4701972,4709126,4715793,4720287,4723141,4725904,4726573],"totalNumberOfNucleotidesInDnaStrings":4726573,"totalNumberOfNsInDnaStrings":85,"averageNumberOfNucleotidesInDnaStrings":109920,"smallestNumberOfNucleotidesInDnaStrings":669,"biggestNumberOfNucleotidesInDnaStrings":466665,"gcContent":"52.1"}},"analysis":{"st":"2","mlst":"1_1_2_1_1_1_5","core":{"size":3915,"percentMatched":99.9,"percentAssemblyMatched":76.2},"resistanceProfile":{"AMP":{"name":"AMP","state":"UNKNOWN","mechanisms":[]},"CEP":{"name":"CEP","state":"UNKNOWN","mechanisms":[]},"CHL":{"name":"CHL","state":"UNKNOWN","mechanisms":[]},"CIP":{"name":"CIP","state":"UNKNOWN","mechanisms":[]},"NAL":{"name":"NAL","state":"UNKNOWN","mechanisms":[]},"SMX":{"name":"SMX","state":"UNKNOWN","mechanisms":[]},"TMP":{"name":"TMP","state":"UNKNOWN","mechanisms":[]},"SXT":{"name":"SXT","state":"UNKNOWN","mechanisms":[]},"TCY":{"name":"TCY","state":"UNKNOWN","mechanisms":[]},"AZM":{"name":"AZM","state":"UNKNOWN","mechanisms":[]},"SIL":{"name":"SIL","state":"UNKNOWN","mechanisms":[]}}}},"NGQ5MWU1ODYtYTFlOS00Nm":{"populationSubtype":"90370_404Ty_3.1","metadata":{"assemblyId":"NGQ5MWU1ODYtYTFlOS00Nm","speciesId":"90370","assemblyName":"9953_5_38_IndoA363_2009","date":{"year":"2009"},"position":{"latitude":-0.789275,"longitude":113.921327},"pmid":"25961941","userDefined":{"country":"Indonesia","accuracy":"1","genotype":"3.1.2","strain":"A363","source":"Blood","accession":"ERR326634","study accession":"ERP001718"},"metrics":{"totalNumberOfContigs":52,"assemblyN50Data":{"sequenceNumber":10,"sum":2447887,"sequenceLength":191421},"contigN50":191421,"sumsOfNucleotidesInDnaStrings":[466392,762420,1012503,1235346,1453215,1659275,1863580,2060780,2256466,2447887,2621166,2791054,2954096,3109194,3262932,3412321,3557090,3655076,3720410,3783493,3845300,3906604,3967244,4025502,4081745,4137885,4186657,4232219,4276117,4319744,4352917,4384395,4415352,4443648,4465993,4486200,4505368,4522454,4534895,4547278,4555869,4562981,4569672,4575972,4580366,4584331,4587404,4590137,4591821,4593487,4594206,4594812],"totalNumberOfNucleotidesInDnaStrings":4594812,"totalNumberOfNsInDnaStrings":34,"averageNumberOfNucleotidesInDnaStrings":88361,"smallestNumberOfNucleotidesInDnaStrings":606,"biggestNumberOfNucleotidesInDnaStrings":466392,"gcContent":"52.2"}},"analysis":{"st":"2","mlst":"1_1_2_1_1_1_5","core":{"size":3917,"percentMatched":100,"percentAssemblyMatched":78.4},"resistanceProfile":{"AMP":{"name":"AMP","state":"UNKNOWN","mechanisms":[]},"CEP":{"name":"CEP","state":"UNKNOWN","mechanisms":[]},"CHL":{"name":"CHL","state":"UNKNOWN","mechanisms":[]},"CIP":{"name":"CIP","state":"UNKNOWN","mechanisms":[]},"NAL":{"name":"NAL","state":"UNKNOWN","mechanisms":[]},"SMX":{"name":"SMX","state":"UNKNOWN","mechanisms":[]},"TMP":{"name":"TMP","state":"UNKNOWN","mechanisms":[]},"SXT":{"name":"SXT","state":"UNKNOWN","mechanisms":[]},"TCY":{"name":"TCY","state":"UNKNOWN","mechanisms":[]},"AZM":{"name":"AZM","state":"UNKNOWN","mechanisms":[]},"SIL":{"name":"SIL","state":"UNKNOWN","mechanisms":[]}}}},"ZjgzYzYwMGEtM2M4ZC00YW":{"populationSubtype":"90370_404Ty_3.1","metadata":{"assemblyId":"ZjgzYzYwMGEtM2M4ZC00YW","speciesId":"90370","assemblyName":"9953_5_43_IndoA370_2010","date":{"year":"2010"},"position":{"latitude":-0.789275,"longitude":113.921327},"pmid":"25961941","userDefined":{"country":"Indonesia","accuracy":"1","genotype":"3.1.2","strain":"A370","source":"Blood","accession":"ERR326639","study accession":"ERP001718"},"metrics":{"totalNumberOfContigs":47,"assemblyN50Data":{"sequenceNumber":7,"sum":2371238,"sequenceLength":219090},"contigN50":219090,"sumsOfNucleotidesInDnaStrings":[549204,980797,1374359,1649637,1902334,2152148,2371238,2577324,2750685,2923771,3080750,3235783,3385161,3529920,3648059,3746035,3839858,3932262,4012690,4081355,4146298,4209255,4269890,4326128,4380631,4424529,4467868,4501030,4532635,4563587,4590053,4612398,4632601,4649671,4662103,4674486,4685751,4694337,4702821,4709933,4714435,4718263,4720996,4721771,4722427,4722986,4723514],"totalNumberOfNucleotidesInDnaStrings":4723514,"totalNumberOfNsInDnaStrings":5,"averageNumberOfNucleotidesInDnaStrings":100500,"smallestNumberOfNucleotidesInDnaStrings":528,"biggestNumberOfNucleotidesInDnaStrings":549204,"gcContent":"52.1"}},"analysis":{"st":"2","mlst":"1_1_2_1_1_1_5","core":{"size":3915,"percentMatched":99.9,"percentAssemblyMatched":76.2},"resistanceProfile":{"AMP":{"name":"AMP","state":"UNKNOWN","mechanisms":[]},"CEP":{"name":"CEP","state":"UNKNOWN","mechanisms":[]},"CHL":{"name":"CHL","state":"UNKNOWN","mechanisms":[]},"CIP":{"name":"CIP","state":"UNKNOWN","mechanisms":[]},"NAL":{"name":"NAL","state":"UNKNOWN","mechanisms":[]},"SMX":{"name":"SMX","state":"UNKNOWN","mechanisms":[]},"TMP":{"name":"TMP","state":"UNKNOWN","mechanisms":[]},"SXT":{"name":"SXT","state":"UNKNOWN","mechanisms":[]},"TCY":{"name":"TCY","state":"UNKNOWN","mechanisms":[]},"AZM":{"name":"AZM","state":"UNKNOWN","mechanisms":[]},"SIL":{"name":"SIL","state":"UNKNOWN","mechanisms":[]}}}},"MWQzYjE0ZWMtYjdkYi00OD":{"populationSubtype":"90370_404Ty_3.1","metadata":{"assemblyId":"MWQzYjE0ZWMtYjdkYi00OD","speciesId":"90370","assemblyName":"10593_2_58_Ben04-6845_2004","date":{"year":"2004"},"position":{"latitude":9.30769,"longitude":2.315834},"pmid":"25961941","userDefined":{"country":"Benin","accuracy":"1","genotype":"3.1.1","strain":"04-6845","source":"Not provided","accession":"ERR360671","study accession":"ERP001718"},"metrics":{"totalNumberOfContigs":53,"assemblyN50Data":{"sequenceNumber":9,"sum":2458637,"sequenceLength":204286},"contigN50":204286,"sumsOfNucleotidesInDnaStrings":[466593,859452,1112687,1362288,1607557,1829331,2048282,2254351,2458637,2617136,2772168,2925851,3075230,3221701,3366471,3510826,3628677,3726509,3807739,3888604,3962086,4027184,4090269,4150929,4207167,4261660,4315044,4363717,4409747,4455737,4499632,4543117,4585967,4624960,4658095,4689935,4720892,4750147,4776594,4802893,4825211,4842228,4854607,4865502,4875264,4883883,4890996,4897651,4902788,4905498,4907365,4908033,4908357],"totalNumberOfNucleotidesInDnaStrings":4908357,"totalNumberOfNsInDnaStrings":61,"averageNumberOfNucleotidesInDnaStrings":92610,"smallestNumberOfNucleotidesInDnaStrings":324,"biggestNumberOfNucleotidesInDnaStrings":466593,"gcContent":"51.9"}},"analysis":{"st":"2","mlst":"1_1_2_1_1_1_5","core":{"size":3912,"percentMatched":99.9,"percentAssemblyMatched":73.2},"resistanceProfile":{"AMP":{"name":"AMP","state":"RESISTANT","mechanisms":["TEM-1"]},"CEP":{"name":"CEP","state":"UNKNOWN","mechanisms":[]},"CHL":{"name":"CHL","state":"RESISTANT","mechanisms":["catA1"]},"CIP":{"name":"CIP","state":"UNKNOWN","mechanisms":[]},"NAL":{"name":"NAL","state":"UNKNOWN","mechanisms":[]},"SMX":{"name":"SMX","state":"RESISTANT","mechanisms":["sulI"]},"TMP":{"name":"TMP","state":"RESISTANT","mechanisms":["dfrA1"]},"SXT":{"name":"SXT","state":"RESISTANT","mechanisms":["sulI-dfrA1"]},"TCY":{"name":"TCY","state":"RESISTANT","mechanisms":["tetR"]},"AZM":{"name":"AZM","state":"UNKNOWN","mechanisms":[]},"SIL":{"name":"SIL","state":"UNKNOWN","mechanisms":[]}}}},"YTkxY2EyYWMtYTVkYi00Nj":{"populationSubtype":"90370_404Ty_3.1","metadata":{"assemblyId":"YTkxY2EyYWMtYTVkYi00Nj","speciesId":"90370","assemblyName":"10071_3_82_IndoA122_2005","date":{"year":"2005"},"position":{"latitude":-0.789275,"longitude":113.921327},"pmid":"25961941","userDefined":{"country":"Indonesia","accuracy":"1","genotype":"3.1.2","strain":"A122","source":"Blood","accession":"ERR338058","study accession":"ERP001718"},"metrics":{"totalNumberOfContigs":47,"assemblyN50Data":{"sequenceNumber":8,"sum":2379516,"sequenceLength":204303},"contigN50":204303,"sumsOfNucleotidesInDnaStrings":[553421,946997,1242135,1498634,1748796,1969115,2175213,2379516,2552908,2725503,2897416,3051136,3200519,3346922,3491691,3605191,3703177,3794044,3875251,3948719,4014053,4077015,4137655,4193898,4248403,4297058,4340956,4384494,4427870,4466932,4500597,4533770,4564727,4591057,4613402,4633613,4645996,4654587,4661699,4668388,4673176,4677676,4681031,4683764,4684353,4684781,4685158],"totalNumberOfNucleotidesInDnaStrings":4685158,"totalNumberOfNsInDnaStrings":68,"averageNumberOfNucleotidesInDnaStrings":99684,"smallestNumberOfNucleotidesInDnaStrings":377,"biggestNumberOfNucleotidesInDnaStrings":553421,"gcContent":"52.1"}},"analysis":{"st":"2","mlst":"1_1_2_1_1_1_5","core":{"size":3878,"percentMatched":99,"percentAssemblyMatched":76.4},"resistanceProfile":{"AMP":{"name":"AMP","state":"UNKNOWN","mechanisms":[]},"CEP":{"name":"CEP","state":"UNKNOWN","mechanisms":[]},"CHL":{"name":"CHL","state":"UNKNOWN","mechanisms":[]},"CIP":{"name":"CIP","state":"UNKNOWN","mechanisms":[]},"NAL":{"name":"NAL","state":"UNKNOWN","mechanisms":[]},"SMX":{"name":"SMX","state":"UNKNOWN","mechanisms":[]},"TMP":{"name":"TMP","state":"UNKNOWN","mechanisms":[]},"SXT":{"name":"SXT","state":"UNKNOWN","mechanisms":[]},"TCY":{"name":"TCY","state":"UNKNOWN","mechanisms":[]},"AZM":{"name":"AZM","state":"UNKNOWN","mechanisms":[]},"SIL":{"name":"SIL","state":"UNKNOWN","mechanisms":[]}}}},"ZTQ0NWIxNGItMGMwYy00ZT":{"populationSubtype":"90370_404Ty_3.1","metadata":{"assemblyId":"ZTQ0NWIxNGItMGMwYy00ZT","speciesId":"90370","assemblyName":"M508","date":{"year":"1937"},"position":{"latitude":null,"longitude":null},"pmid":"26411565","userDefined":{"country":"Unknown","accuracy":"","genotype":"3.1.2","strain":"B 1505 - A ","source":"Blood culture","accession":"ERS203094","study accession":"ERP001784 "},"metrics":{"totalNumberOfContigs":41,"assemblyN50Data":{"sequenceNumber":9,"sum":2563547,"sequenceLength":185424},"contigN50":185424,"sumsOfNucleotidesInDnaStrings":[466407,923273,1219303,1482244,1732403,1954186,2172055,2378123,2563547,2736744,2908788,3071853,3225591,3374973,3519743,3659449,3789514,3903021,4000983,4093390,4174398,4239347,4302430,4363070,4419313,4467509,4511407,4549681,4582843,4614663,4646071,4677028,4702791,4725136,4737519,4746110,4753222,4759918,4763740,4766473,4767152],"totalNumberOfNucleotidesInDnaStrings":4767152,"totalNumberOfNsInDnaStrings":2,"averageNumberOfNucleotidesInDnaStrings":116272,"smallestNumberOfNucleotidesInDnaStrings":679,"biggestNumberOfNucleotidesInDnaStrings":466407,"gcContent":"52.0"}},"analysis":{"st":"2","mlst":"1_1_2_1_1_1_5","core":{"size":3916,"percentMatched":100,"percentAssemblyMatched":75.6},"resistanceProfile":{"AMP":{"name":"AMP","state":"UNKNOWN","mechanisms":[]},"CEP":{"name":"CEP","state":"UNKNOWN","mechanisms":[]},"CHL":{"name":"CHL","state":"UNKNOWN","mechanisms":[]},"CIP":{"name":"CIP","state":"UNKNOWN","mechanisms":[]},"NAL":{"name":"NAL","state":"UNKNOWN","mechanisms":[]},"SMX":{"name":"SMX","state":"UNKNOWN","mechanisms":[]},"TMP":{"name":"TMP","state":"UNKNOWN","mechanisms":[]},"SXT":{"name":"SXT","state":"UNKNOWN","mechanisms":[]},"TCY":{"name":"TCY","state":"UNKNOWN","mechanisms":[]},"AZM":{"name":"AZM","state":"UNKNOWN","mechanisms":[]},"SIL":{"name":"SIL","state":"UNKNOWN","mechanisms":[]}}}},"ZGRmYzlhMjAtODc3OS00Yj":{"populationSubtype":"90370_404Ty_3.1","metadata":{"assemblyId":"ZGRmYzlhMjAtODc3OS00Yj","speciesId":"90370","assemblyName":"10592_2_40_IvoCoa07-4565_2007","date":{"year":"2007"},"position":{"latitude":7.539989,"longitude":-5.54708},"pmid":"25961941","userDefined":{"country":"Ivory Coast","accuracy":"1","genotype":"3.1.1","strain":"07-4565","source":"Not provided","accession":"ERR360488","study accession":"ERP001718"},"metrics":{"totalNumberOfContigs":50,"assemblyN50Data":{"sequenceNumber":9,"sum":2451602,"sequenceLength":185598},"contigN50":185598,"sumsOfNucleotidesInDnaStrings":[531911,924621,1174182,1419043,1637985,1855929,2061740,2266004,2451602,2624852,2783211,2940161,3095189,3244466,3389137,3522832,3641106,3755795,3853645,3934815,4015680,4078686,4139465,4195600,4250083,4298660,4344000,4387790,4431301,4474153,4507254,4539158,4570012,4596312,4618603,4638733,4655766,4668050,4678957,4687454,4695925,4702941,4709568,4715867,4720201,4723561,4726201,4727061,4727830,4728488],"totalNumberOfNucleotidesInDnaStrings":4728488,"totalNumberOfNsInDnaStrings":30,"averageNumberOfNucleotidesInDnaStrings":94569,"smallestNumberOfNucleotidesInDnaStrings":658,"biggestNumberOfNucleotidesInDnaStrings":531911,"gcContent":"52.1"}},"analysis":{"st":"2","mlst":"1_1_2_1_1_1_5","core":{"size":3911,"percentMatched":99.8,"percentAssemblyMatched":76},"resistanceProfile":{"AMP":{"name":"AMP","state":"UNKNOWN","mechanisms":[]},"CEP":{"name":"CEP","state":"UNKNOWN","mechanisms":[]},"CHL":{"name":"CHL","state":"UNKNOWN","mechanisms":[]},"CIP":{"name":"CIP","state":"UNKNOWN","mechanisms":[]},"NAL":{"name":"NAL","state":"UNKNOWN","mechanisms":[]},"SMX":{"name":"SMX","state":"RESISTANT","mechanisms":["sulI"]},"TMP":{"name":"TMP","state":"RESISTANT","mechanisms":["dfrA1"]},"SXT":{"name":"SXT","state":"RESISTANT","mechanisms":["sulI-dfrA1"]},"TCY":{"name":"TCY","state":"UNKNOWN","mechanisms":[]},"AZM":{"name":"AZM","state":"UNKNOWN","mechanisms":[]},"SIL":{"name":"SIL","state":"UNKNOWN","mechanisms":[]}}}},"Njg4ZWY3YTctMmE3NC00Nm":{"populationSubtype":"90370_404Ty_3.1","metadata":{"assemblyId":"Njg4ZWY3YTctMmE3NC00Nm","speciesId":"90370","assemblyName":"10425_1_75_Viety1-16_1993","date":{"year":"1993"},"position":{"latitude":14.058324,"longitude":108.277199},"pmid":"25961941","userDefined":{"country":"Vietnam","accuracy":"1","genotype":"3.1.0","strain":"ty1-16","source":"Blood","accession":"ERR349405","study accession":"ERP001718"},"metrics":{"totalNumberOfContigs":56,"assemblyN50Data":{"sequenceNumber":10,"sum":2494916,"sequenceLength":173391},"contigN50":173391,"sumsOfNucleotidesInDnaStrings":[466652,729435,979776,1229309,1474351,1693405,1911182,2117197,2321525,2494916,2666357,2829332,2983046,3132394,3278635,3423317,3558798,3688729,3802245,3900141,3992274,4073136,4136017,4196301,4252475,4305974,4349778,4393194,4436025,4475052,4508137,4539955,4570826,4597129,4619417,4639570,4651869,4663080,4671581,4679304,4686324,4692943,4699242,4703572,4707359,4710714,4713848,4716796,4719438,4721174,4722436,4723296,4723921,4724282,4724641,4724996],"totalNumberOfNucleotidesInDnaStrings":4724996,"totalNumberOfNsInDnaStrings":6472,"averageNumberOfNucleotidesInDnaStrings":84374,"smallestNumberOfNucleotidesInDnaStrings":355,"biggestNumberOfNucleotidesInDnaStrings":466652,"gcContent":"52.1"}},"analysis":{"st":"2","mlst":"1_1_2_1_1_1_5","core":{"size":3904,"percentMatched":99.7,"percentAssemblyMatched":75.9},"resistanceProfile":{"AMP":{"name":"AMP","state":"UNKNOWN","mechanisms":[]},"CEP":{"name":"CEP","state":"UNKNOWN","mechanisms":[]},"CHL":{"name":"CHL","state":"UNKNOWN","mechanisms":[]},"CIP":{"name":"CIP","state":"UNKNOWN","mechanisms":[]},"NAL":{"name":"NAL","state":"UNKNOWN","mechanisms":[]},"SMX":{"name":"SMX","state":"UNKNOWN","mechanisms":[]},"TMP":{"name":"TMP","state":"UNKNOWN","mechanisms":[]},"SXT":{"name":"SXT","state":"UNKNOWN","mechanisms":[]},"TCY":{"name":"TCY","state":"UNKNOWN","mechanisms":[]},"AZM":{"name":"AZM","state":"UNKNOWN","mechanisms":[]},"SIL":{"name":"SIL","state":"UNKNOWN","mechanisms":[]}}}},"OWFkM2MwNTAtYTViZS00Nj":{"populationSubtype":"90370_404Ty_3.1","metadata":{"assemblyId":"OWFkM2MwNTAtYTViZS00Nj","speciesId":"90370","assemblyName":"10060_5_17_IndoA158_2009","date":{"year":"2009"},"position":{"latitude":-0.789275,"longitude":113.921327},"pmid":"25961941","userDefined":{"country":"Indonesia","accuracy":"1","genotype":"3.1.2","strain":"A158","source":"Blood","accession":"ERR331220","study accession":"ERP001718"},"metrics":{"totalNumberOfContigs":45,"assemblyN50Data":{"sequenceNumber":9,"sum":2430422,"sequenceLength":185760},"contigN50":185760,"sumsOfNucleotidesInDnaStrings":[466410,859339,1112042,1362141,1611604,1831203,2038558,2244662,2430422,2605856,2779099,2952303,3113359,3267097,3416480,3561249,3679954,3777940,3870348,3953949,4035162,4100496,4163579,4224219,4280462,4335012,4380093,4423991,4466870,4500043,4531880,4562837,4589169,4611514,4631732,4644115,4652706,4659818,4666507,4671661,4675492,4678225,4678779,4679304,4679829],"totalNumberOfNucleotidesInDnaStrings":4679829,"totalNumberOfNsInDnaStrings":10,"averageNumberOfNucleotidesInDnaStrings":103996,"smallestNumberOfNucleotidesInDnaStrings":525,"biggestNumberOfNucleotidesInDnaStrings":466410,"gcContent":"52.1"}},"analysis":{"st":"2","mlst":"1_1_2_1_1_1_5","core":{"size":3871,"percentMatched":98.8,"percentAssemblyMatched":76.4},"resistanceProfile":{"AMP":{"name":"AMP","state":"UNKNOWN","mechanisms":[]},"CEP":{"name":"CEP","state":"UNKNOWN","mechanisms":[]},"CHL":{"name":"CHL","state":"UNKNOWN","mechanisms":[]},"CIP":{"name":"CIP","state":"UNKNOWN","mechanisms":[]},"NAL":{"name":"NAL","state":"UNKNOWN","mechanisms":[]},"SMX":{"name":"SMX","state":"UNKNOWN","mechanisms":[]},"TMP":{"name":"TMP","state":"UNKNOWN","mechanisms":[]},"SXT":{"name":"SXT","state":"UNKNOWN","mechanisms":[]},"TCY":{"name":"TCY","state":"UNKNOWN","mechanisms":[]},"AZM":{"name":"AZM","state":"UNKNOWN","mechanisms":[]},"SIL":{"name":"SIL","state":"UNKNOWN","mechanisms":[]}}}},"OTFlZGRiMjQtMDVlNS00Zj":{"populationSubtype":"90370_404Ty_3.1","metadata":{"assemblyId":"OTFlZGRiMjQtMDVlNS00Zj","speciesId":"90370","assemblyName":"10592_2_47_Gui09-4821_2009","date":{"year":"2009"},"position":{"latitude":9.945587,"longitude":-9.696645},"pmid":"25961941","userDefined":{"country":"Guinea","accuracy":"1","genotype":"3.1.1","strain":"09-4821","source":"Not provided","accession":"ERR360495","study accession":"ERP001718"},"metrics":{"totalNumberOfContigs":47,"assemblyN50Data":{"sequenceNumber":9,"sum":2408719,"sequenceLength":158431},"contigN50":158431,"sumsOfNucleotidesInDnaStrings":[672724,969901,1222542,1467619,1687224,1891642,2077054,2250288,2408719,2563955,2717645,2866952,3011569,3155900,3296273,3426833,3556835,3676279,3793181,3906678,4004417,4091509,4156583,4219583,4280224,4336447,4386962,4435632,4479509,4522343,4555442,4586299,4612595,4634907,4655125,4672147,4684433,4694176,4702647,4709741,4716375,4720858,4724657,4728012,4730723,4731491,4732156],"totalNumberOfNucleotidesInDnaStrings":4732156,"totalNumberOfNsInDnaStrings":17,"averageNumberOfNucleotidesInDnaStrings":100684,"smallestNumberOfNucleotidesInDnaStrings":665,"biggestNumberOfNucleotidesInDnaStrings":672724,"gcContent":"52.1"}},"analysis":{"st":"2","mlst":"1_1_2_1_1_1_5","core":{"size":3912,"percentMatched":99.9,"percentAssemblyMatched":75.9},"resistanceProfile":{"AMP":{"name":"AMP","state":"UNKNOWN","mechanisms":[]},"CEP":{"name":"CEP","state":"UNKNOWN","mechanisms":[]},"CHL":{"name":"CHL","state":"RESISTANT","mechanisms":["catA1"]},"CIP":{"name":"CIP","state":"UNKNOWN","mechanisms":[]},"NAL":{"name":"NAL","state":"UNKNOWN","mechanisms":[]},"SMX":{"name":"SMX","state":"RESISTANT","mechanisms":["sulI"]},"TMP":{"name":"TMP","state":"RESISTANT","mechanisms":["dfrA1"]},"SXT":{"name":"SXT","state":"RESISTANT","mechanisms":["sulI-dfrA1"]},"TCY":{"name":"TCY","state":"UNKNOWN","mechanisms":[]},"AZM":{"name":"AZM","state":"UNKNOWN","mechanisms":[]},"SIL":{"name":"SIL","state":"UNKNOWN","mechanisms":[]}}}},"ODhkNzBhZGUtNjc4NS00Ym":{"populationSubtype":"90370_404Ty_3.1","metadata":{"assemblyId":"ODhkNzBhZGUtNjc4NS00Ym","speciesId":"90370","assemblyName":"10592_2_77_IvoCoa06-6673_2006","date":{"year":"2006"},"position":{"latitude":7.539989,"longitude":-5.54708},"pmid":"25961941","userDefined":{"country":"Ivory Coast","accuracy":"1","genotype":"3.1.1","strain":"06-6673","source":"Not provided","accession":"ERR360525","study accession":"ERP001718"},"metrics":{"totalNumberOfContigs":46,"assemblyN50Data":{"sequenceNumber":9,"sum":2470278,"sequenceLength":202205},"contigN50":202205,"sumsOfNucleotidesInDnaStrings":[531933,925441,1175105,1420474,1639918,1857698,2063653,2268073,2470278,2655621,2828865,3000779,3159152,3308467,3453161,3588829,3719464,3839582,3953081,4050785,4137873,4200895,4261491,4317663,4366318,4410148,4453678,4496512,4529616,4561516,4592405,4618701,4640998,4661165,4673489,4683232,4691733,4698899,4705951,4712598,4717087,4721392,4725191,4728325,4730994,4731653],"totalNumberOfNucleotidesInDnaStrings":4731653,"totalNumberOfNsInDnaStrings":13,"averageNumberOfNucleotidesInDnaStrings":102862,"smallestNumberOfNucleotidesInDnaStrings":659,"biggestNumberOfNucleotidesInDnaStrings":531933,"gcContent":"52.1"}},"analysis":{"st":"2","mlst":"1_1_2_1_1_1_5","core":{"size":3912,"percentMatched":99.9,"percentAssemblyMatched":76},"resistanceProfile":{"AMP":{"name":"AMP","state":"UNKNOWN","mechanisms":[]},"CEP":{"name":"CEP","state":"UNKNOWN","mechanisms":[]},"CHL":{"name":"CHL","state":"RESISTANT","mechanisms":["catA1"]},"CIP":{"name":"CIP","state":"UNKNOWN","mechanisms":[]},"NAL":{"name":"NAL","state":"UNKNOWN","mechanisms":[]},"SMX":{"name":"SMX","state":"RESISTANT","mechanisms":["sulI"]},"TMP":{"name":"TMP","state":"RESISTANT","mechanisms":["dfrA1"]},"SXT":{"name":"SXT","state":"RESISTANT","mechanisms":["sulI-dfrA1"]},"TCY":{"name":"TCY","state":"UNKNOWN","mechanisms":[]},"AZM":{"name":"AZM","state":"UNKNOWN","mechanisms":[]},"SIL":{"name":"SIL","state":"UNKNOWN","mechanisms":[]}}}},"ZmYxN2QxMmUtMWRmNy00ZG":{"populationSubtype":"90370_404Ty_3.1","metadata":{"assemblyId":"ZmYxN2QxMmUtMWRmNy00ZG","speciesId":"90370","assemblyName":"10060_5_30_IndoA239_2009","date":{"year":"2009"},"position":{"latitude":-0.789275,"longitude":113.921327},"pmid":"25961941","userDefined":{"country":"Indonesia","accuracy":"1","genotype":"3.1.2","strain":"A239","source":"Blood","accession":"ERR331233","study accession":"ERP001718"},"metrics":{"totalNumberOfContigs":61,"assemblyN50Data":{"sequenceNumber":11,"sum":2524064,"sequenceLength":175054},"contigN50":175054,"sumsOfNucleotidesInDnaStrings":[462181,711779,930735,1148604,1365422,1571508,1775810,1973010,2163342,2349010,2524064,2696027,2860174,3023267,3177005,3326388,3471152,3569138,3661546,3738283,3803987,3866949,3927589,3983832,4039966,4094566,4149005,4198959,4248083,4291981,4335736,4379082,4419919,4453081,4485052,4516537,4547494,4573708,4597697,4620042,4640260,4652643,4662551,4672310,4680901,4688498,4695610,4702402,4706794,4710582,4713315,4715148,4716830,4718092,4719249,4720169,4720888,4721362,4721774,4722162,4722519],"totalNumberOfNucleotidesInDnaStrings":4722519,"totalNumberOfNsInDnaStrings":39,"averageNumberOfNucleotidesInDnaStrings":77418,"smallestNumberOfNucleotidesInDnaStrings":357,"biggestNumberOfNucleotidesInDnaStrings":462181,"gcContent":"52.1"}},"analysis":{"st":"2","mlst":"1_1_2_1_1_1_5","core":{"size":3914,"percentMatched":99.9,"percentAssemblyMatched":76.2},"resistanceProfile":{"AMP":{"name":"AMP","state":"UNKNOWN","mechanisms":[]},"CEP":{"name":"CEP","state":"UNKNOWN","mechanisms":[]},"CHL":{"name":"CHL","state":"UNKNOWN","mechanisms":[]},"CIP":{"name":"CIP","state":"UNKNOWN","mechanisms":[]},"NAL":{"name":"NAL","state":"UNKNOWN","mechanisms":[]},"SMX":{"name":"SMX","state":"UNKNOWN","mechanisms":[]},"TMP":{"name":"TMP","state":"UNKNOWN","mechanisms":[]},"SXT":{"name":"SXT","state":"UNKNOWN","mechanisms":[]},"TCY":{"name":"TCY","state":"UNKNOWN","mechanisms":[]},"AZM":{"name":"AZM","state":"UNKNOWN","mechanisms":[]},"SIL":{"name":"SIL","state":"UNKNOWN","mechanisms":[]}}}},"ZDg3M2FlOTAtMDYwMS00Y2":{"populationSubtype":"90370_404Ty_3.1","metadata":{"assemblyId":"ZDg3M2FlOTAtMDYwMS00Y2","speciesId":"90370","assemblyName":"10349_1_8_Indo02732_2002","date":{"year":"2002"},"position":{"latitude":-0.789275,"longitude":113.921327},"pmid":"25961941","userDefined":{"country":"Indonesia","accuracy":"1","genotype":"3.1.2","strain":"ERL02732 ","source":"Blood","accession":"ERR343256","study accession":"ERP001718"},"metrics":{"totalNumberOfContigs":40,"assemblyN50Data":{"sequenceNumber":8,"sum":2390470,"sequenceLength":206026},"contigN50":206026,"sumsOfNucleotidesInDnaStrings":[466580,885703,1219161,1472367,1721583,1966638,2184444,2390470,2594887,2779268,2958404,3130388,3293412,3447114,3596524,3741251,3876786,3974760,4067001,4147845,4210869,4271509,4327705,4381857,4435813,4479638,4522460,4559272,4592359,4623258,4649573,4671852,4684162,4695352,4703905,4710958,4717594,4721381,4724044,4725102],"totalNumberOfNucleotidesInDnaStrings":4725102,"totalNumberOfNsInDnaStrings":135,"averageNumberOfNucleotidesInDnaStrings":118127,"smallestNumberOfNucleotidesInDnaStrings":1058,"biggestNumberOfNucleotidesInDnaStrings":466580,"gcContent":"52.1"}},"analysis":{"st":"2","mlst":"1_1_2_1_1_1_5","core":{"size":3916,"percentMatched":100,"percentAssemblyMatched":76.2},"resistanceProfile":{"AMP":{"name":"AMP","state":"UNKNOWN","mechanisms":[]},"CEP":{"name":"CEP","state":"UNKNOWN","mechanisms":[]},"CHL":{"name":"CHL","state":"UNKNOWN","mechanisms":[]},"CIP":{"name":"CIP","state":"UNKNOWN","mechanisms":[]},"NAL":{"name":"NAL","state":"UNKNOWN","mechanisms":[]},"SMX":{"name":"SMX","state":"UNKNOWN","mechanisms":[]},"TMP":{"name":"TMP","state":"UNKNOWN","mechanisms":[]},"SXT":{"name":"SXT","state":"UNKNOWN","mechanisms":[]},"TCY":{"name":"TCY","state":"UNKNOWN","mechanisms":[]},"AZM":{"name":"AZM","state":"UNKNOWN","mechanisms":[]},"SIL":{"name":"SIL","state":"UNKNOWN","mechanisms":[]}}}},"NzI0ZmIyOGItNGI1Ni00Y2":{"populationSubtype":"90370_404Ty_3.1","metadata":{"assemblyId":"NzI0ZmIyOGItNGI1Ni00Y2","speciesId":"90370","assemblyName":"10071_3_73_Safr671076_2012","date":{"year":"2012"},"position":{"latitude":-30.559482,"longitude":22.937506},"pmid":"25961941","userDefined":{"country":"South Africa","accuracy":"1","genotype":"3.1.0","strain":"671076","source":"Blood","accession":"ERR338049","study accession":"ERP001718"},"metrics":{"totalNumberOfContigs":43,"assemblyN50Data":{"sequenceNumber":9,"sum":2538240,"sequenceLength":204303},"contigN50":204303,"sumsOfNucleotidesInDnaStrings":[466366,885813,1183816,1436356,1686490,1910017,2127886,2333937,2538240,2723737,2897029,3068980,3231608,3385171,3534547,3679316,3814619,3928119,4026105,4118332,4199205,4264166,4327249,4387889,4444132,4488030,4530929,4564091,4595670,4626627,4653261,4675606,4687989,4696580,4703692,4710376,4714939,4718906,4722444,4725177,4725896,4726569,4726874],"totalNumberOfNucleotidesInDnaStrings":4726874,"totalNumberOfNsInDnaStrings":8,"averageNumberOfNucleotidesInDnaStrings":109927,"smallestNumberOfNucleotidesInDnaStrings":305,"biggestNumberOfNucleotidesInDnaStrings":466366,"gcContent":"52.1"}},"analysis":{"st":"2","mlst":"1_1_2_1_1_1_5","core":{"size":3918,"percentMatched":100,"percentAssemblyMatched":76.3},"resistanceProfile":{"AMP":{"name":"AMP","state":"UNKNOWN","mechanisms":[]},"CEP":{"name":"CEP","state":"UNKNOWN","mechanisms":[]},"CHL":{"name":"CHL","state":"UNKNOWN","mechanisms":[]},"CIP":{"name":"CIP","state":"UNKNOWN","mechanisms":[]},"NAL":{"name":"NAL","state":"UNKNOWN","mechanisms":[]},"SMX":{"name":"SMX","state":"UNKNOWN","mechanisms":[]},"TMP":{"name":"TMP","state":"UNKNOWN","mechanisms":[]},"SXT":{"name":"SXT","state":"UNKNOWN","mechanisms":[]},"TCY":{"name":"TCY","state":"UNKNOWN","mechanisms":[]},"AZM":{"name":"AZM","state":"UNKNOWN","mechanisms":[]},"SIL":{"name":"SIL","state":"UNKNOWN","mechanisms":[]}}}},"ZTBmMGZkNjUtMTJlNy00MT":{"populationSubtype":"90370_404Ty_3.1","metadata":{"assemblyId":"ZTBmMGZkNjUtMTJlNy00MT","speciesId":"90370","assemblyName":"11800_1_66_GhaH07404418_2007","date":{"year":"2007"},"position":{"latitude":7.946527,"longitude":-1.023194},"pmid":"","userDefined":{"country":"Ghana","accuracy":"1","genotype":"3.1.1","strain":"H07404418","source":"Blood","accession":"ERR1017078","study accession":""},"metrics":{"totalNumberOfContigs":73,"assemblyN50Data":{"sequenceNumber":10,"sum":2485016,"sequenceLength":201720},"contigN50":201720,"sumsOfNucleotidesInDnaStrings":[466383,729306,979261,1224329,1443235,1661083,1873058,2078974,2283296,2485016,2661536,2833442,2991787,3145331,3294585,3439291,3578790,3708511,3821999,3919678,4006750,4069772,4130332,4186470,4234976,4282885,4326677,4370085,4412966,4451982,4485626,4518701,4549553,4575790,4599423,4621703,4641837,4661711,4673990,4682457,4689623,4696631,4703258,4708388,4712183,4715317,4717947,4718690,4719300,4719860,4720340,4720806,4721254,4721676,4722070,4722450,4722811,4723171,4723518,4723863,4724201,4724536,4724871,4725204,4725526,4725848,4726169,4726486,4726801,4727110,4727417,4727719,4728021],"totalNumberOfNucleotidesInDnaStrings":4728021,"totalNumberOfNsInDnaStrings":7312,"averageNumberOfNucleotidesInDnaStrings":64767,"smallestNumberOfNucleotidesInDnaStrings":302,"biggestNumberOfNucleotidesInDnaStrings":466383,"gcContent":"52.1"}},"analysis":{"st":"2","mlst":"1_1_2_1_1_1_5","core":{"size":3896,"percentMatched":99.5,"percentAssemblyMatched":75.6},"resistanceProfile":{"AMP":{"name":"AMP","state":"UNKNOWN","mechanisms":[]},"CEP":{"name":"CEP","state":"UNKNOWN","mechanisms":[]},"CHL":{"name":"CHL","state":"UNKNOWN","mechanisms":[]},"CIP":{"name":"CIP","state":"UNKNOWN","mechanisms":[]},"NAL":{"name":"NAL","state":"UNKNOWN","mechanisms":[]},"SMX":{"name":"SMX","state":"RESISTANT","mechanisms":["sulI"]},"TMP":{"name":"TMP","state":"UNKNOWN","mechanisms":[]},"SXT":{"name":"SXT","state":"UNKNOWN","mechanisms":[]},"TCY":{"name":"TCY","state":"UNKNOWN","mechanisms":[]},"AZM":{"name":"AZM","state":"UNKNOWN","mechanisms":[]},"SIL":{"name":"SIL","state":"UNKNOWN","mechanisms":[]}}}},"MGFmY2M1ZTgtYjYwOC00Yj":{"populationSubtype":"90370_404Ty_3.1","metadata":{"assemblyId":"MGFmY2M1ZTgtYjYwOC00Yj","speciesId":"90370","assemblyName":"10071_3_91_IndoA135_2004","date":{"year":"2004"},"position":{"latitude":-0.789275,"longitude":113.921327},"pmid":"25961941","userDefined":{"country":"Indonesia","accuracy":"1","genotype":"3.1.2","strain":"A135","source":"Blood","accession":"ERR338067","study accession":"ERP001718"},"metrics":{"totalNumberOfContigs":55,"assemblyN50Data":{"sequenceNumber":10,"sum":2463103,"sequenceLength":173307},"contigN50":173307,"sumsOfNucleotidesInDnaStrings":[466390,729588,981945,1232088,1477191,1696457,1902550,2106856,2289796,2463103,2635016,2788754,2940214,3089597,3234366,3364171,3481708,3579694,3674127,3761232,3842244,3921115,3986661,4049720,4110360,4166603,4215308,4261232,4306320,4350218,4393826,4436009,4472666,4505839,4536796,4563361,4585706,4605910,4618293,4629554,4638829,4647420,4654998,4662110,4668796,4672556,4675430,4678163,4679942,4681099,4681705,4682245,4682693,4683080,4683457],"totalNumberOfNucleotidesInDnaStrings":4683457,"totalNumberOfNsInDnaStrings":30,"averageNumberOfNucleotidesInDnaStrings":85153,"smallestNumberOfNucleotidesInDnaStrings":377,"biggestNumberOfNucleotidesInDnaStrings":466390,"gcContent":"52.1"}},"analysis":{"st":"2","mlst":"1_1_2_1_1_1_5","core":{"size":3878,"percentMatched":99,"percentAssemblyMatched":76.4},"resistanceProfile":{"AMP":{"name":"AMP","state":"UNKNOWN","mechanisms":[]},"CEP":{"name":"CEP","state":"UNKNOWN","mechanisms":[]},"CHL":{"name":"CHL","state":"UNKNOWN","mechanisms":[]},"CIP":{"name":"CIP","state":"UNKNOWN","mechanisms":[]},"NAL":{"name":"NAL","state":"UNKNOWN","mechanisms":[]},"SMX":{"name":"SMX","state":"UNKNOWN","mechanisms":[]},"TMP":{"name":"TMP","state":"UNKNOWN","mechanisms":[]},"SXT":{"name":"SXT","state":"UNKNOWN","mechanisms":[]},"TCY":{"name":"TCY","state":"UNKNOWN","mechanisms":[]},"AZM":{"name":"AZM","state":"UNKNOWN","mechanisms":[]},"SIL":{"name":"SIL","state":"UNKNOWN","mechanisms":[]}}}},"NDk4ODk0MmYtY2RmZi00Nz":{"populationSubtype":"90370_404Ty_3.1","metadata":{"assemblyId":"NDk4ODk0MmYtY2RmZi00Nz","speciesId":"90370","assemblyName":"10071_3_92_indoA136_2010","date":{"year":"2010"},"position":{"latitude":-0.789275,"longitude":113.921327},"pmid":"25961941","userDefined":{"country":"Indonesia","accuracy":"1","genotype":"3.1.2","strain":"A136","source":"Blood","accession":"ERR338068","study accession":"ERP001718"},"metrics":{"totalNumberOfContigs":52,"assemblyN50Data":{"sequenceNumber":10,"sum":2526978,"sequenceLength":185425},"contigN50":185425,"sumsOfNucleotidesInDnaStrings":[466392,758289,1008578,1253658,1493689,1713274,1931157,2137257,2341553,2526978,2700171,2863261,3018373,3172197,3321580,3466349,3602361,3715859,3813845,3906078,3987090,4068054,4133402,4196448,4257088,4313331,4367836,4411734,4455109,4497591,4530764,4562223,4593180,4615525,4632587,4648988,4661371,4671021,4679612,4687769,4694881,4701565,4705952,4709755,4712890,4715835,4717933,4719823,4721514,4723162,4723768,4724303],"totalNumberOfNucleotidesInDnaStrings":4724303,"totalNumberOfNsInDnaStrings":16,"averageNumberOfNucleotidesInDnaStrings":90851,"smallestNumberOfNucleotidesInDnaStrings":535,"biggestNumberOfNucleotidesInDnaStrings":466392,"gcContent":"52.1"}},"analysis":{"st":"2","mlst":"1_1_2_1_1_1_5","core":{"size":3914,"percentMatched":99.9,"percentAssemblyMatched":76.2},"resistanceProfile":{"AMP":{"name":"AMP","state":"UNKNOWN","mechanisms":[]},"CEP":{"name":"CEP","state":"UNKNOWN","mechanisms":[]},"CHL":{"name":"CHL","state":"UNKNOWN","mechanisms":[]},"CIP":{"name":"CIP","state":"UNKNOWN","mechanisms":[]},"NAL":{"name":"NAL","state":"UNKNOWN","mechanisms":[]},"SMX":{"name":"SMX","state":"UNKNOWN","mechanisms":[]},"TMP":{"name":"TMP","state":"UNKNOWN","mechanisms":[]},"SXT":{"name":"SXT","state":"UNKNOWN","mechanisms":[]},"TCY":{"name":"TCY","state":"UNKNOWN","mechanisms":[]},"AZM":{"name":"AZM","state":"UNKNOWN","mechanisms":[]},"SIL":{"name":"SIL","state":"UNKNOWN","mechanisms":[]}}}},"N2FkYzIyNTQtMWExYy00NG":{"populationSubtype":"90370_404Ty_3.1","metadata":{"assemblyId":"N2FkYzIyNTQtMWExYy00NG","speciesId":"90370","assemblyName":"10592_2_75_Mau09-5232_2009","date":{"year":"2009"},"position":{"latitude":21.00789,"longitude":-10.940835},"pmid":"25961941","userDefined":{"country":"Mauritania","accuracy":"1","genotype":"3.1.1","strain":"09-5232","source":"Not provided","accession":"ERR360523","study accession":"ERP001718"},"metrics":{"totalNumberOfContigs":48,"assemblyN50Data":{"sequenceNumber":8,"sum":2586060,"sequenceLength":205979},"contigN50":205979,"sumsOfNucleotidesInDnaStrings":[471336,937713,1330439,1663912,1913453,2158316,2380081,2586060,2790553,2962554,3120984,3274677,3424046,3568726,3712221,3810053,3902166,3983396,4064243,4129333,4192406,4252978,4309211,4363694,4417184,4465599,4511830,4555721,4598555,4640061,4673173,4705011,4735946,4766414,4793494,4819941,4842260,4854630,4865155,4874912,4883531,4890632,4897260,4901716,4905505,4908222,4908884,4909327],"totalNumberOfNucleotidesInDnaStrings":4909327,"totalNumberOfNsInDnaStrings":7,"averageNumberOfNucleotidesInDnaStrings":102277,"smallestNumberOfNucleotidesInDnaStrings":443,"biggestNumberOfNucleotidesInDnaStrings":471336,"gcContent":"51.9"}},"analysis":{"st":"2","mlst":"1_1_2_1_1_1_5","core":{"size":3912,"percentMatched":99.9,"percentAssemblyMatched":73.2},"resistanceProfile":{"AMP":{"name":"AMP","state":"RESISTANT","mechanisms":["TEM-1"]},"CEP":{"name":"CEP","state":"UNKNOWN","mechanisms":[]},"CHL":{"name":"CHL","state":"RESISTANT","mechanisms":["catA1"]},"CIP":{"name":"CIP","state":"UNKNOWN","mechanisms":[]},"NAL":{"name":"NAL","state":"UNKNOWN","mechanisms":[]},"SMX":{"name":"SMX","state":"RESISTANT","mechanisms":["sulI"]},"TMP":{"name":"TMP","state":"RESISTANT","mechanisms":["dfrA1"]},"SXT":{"name":"SXT","state":"RESISTANT","mechanisms":["sulI-dfrA1"]},"TCY":{"name":"TCY","state":"RESISTANT","mechanisms":["tetR","tetA"]},"AZM":{"name":"AZM","state":"UNKNOWN","mechanisms":[]},"SIL":{"name":"SIL","state":"UNKNOWN","mechanisms":[]}}}},"YjBhNTliNmUtZjQwYS00OG":{"populationSubtype":"90370_404Ty_3.1","metadata":{"assemblyId":"YjBhNTliNmUtZjQwYS00OG","speciesId":"90370","assemblyName":"10593_2_18_ChinE02-5919_2002","date":{"year":"2002"},"position":{"latitude":35.86166,"longitude":104.195397},"pmid":"25961941","userDefined":{"country":"China","accuracy":"1","genotype":"3.1.0","strain":"E02-5919","source":"Not provided","accession":"ERR360631","study accession":"ERP001718"},"metrics":{"totalNumberOfContigs":43,"assemblyN50Data":{"sequenceNumber":8,"sum":2452302,"sequenceLength":205966},"contigN50":205966,"sumsOfNucleotidesInDnaStrings":[466379,885461,1219158,1514864,1767512,2017472,2246336,2452302,2656585,2846710,3032663,3204587,3358296,3507779,3652484,3769457,3867345,3948521,4029394,4094391,4157324,4217927,4274122,4329386,4383924,4432582,4476449,4519292,4552454,4584362,4615276,4642358,4664703,4677052,4688809,4697301,4704382,4711050,4715384,4719180,4722011,4724681,4725341],"totalNumberOfNucleotidesInDnaStrings":4725341,"totalNumberOfNsInDnaStrings":21,"averageNumberOfNucleotidesInDnaStrings":109891,"smallestNumberOfNucleotidesInDnaStrings":660,"biggestNumberOfNucleotidesInDnaStrings":466379,"gcContent":"52.1"}},"analysis":{"st":"2","mlst":"1_1_2_1_1_1_5","core":{"size":3914,"percentMatched":99.9,"percentAssemblyMatched":76.2},"resistanceProfile":{"AMP":{"name":"AMP","state":"UNKNOWN","mechanisms":[]},"CEP":{"name":"CEP","state":"UNKNOWN","mechanisms":[]},"CHL":{"name":"CHL","state":"UNKNOWN","mechanisms":[]},"CIP":{"name":"CIP","state":"UNKNOWN","mechanisms":[]},"NAL":{"name":"NAL","state":"UNKNOWN","mechanisms":[]},"SMX":{"name":"SMX","state":"UNKNOWN","mechanisms":[]},"TMP":{"name":"TMP","state":"UNKNOWN","mechanisms":[]},"SXT":{"name":"SXT","state":"UNKNOWN","mechanisms":[]},"TCY":{"name":"TCY","state":"UNKNOWN","mechanisms":[]},"AZM":{"name":"AZM","state":"UNKNOWN","mechanisms":[]},"SIL":{"name":"SIL","state":"UNKNOWN","mechanisms":[]}}}},"MjViNGFkZDYtMmU1NC00ND":{"populationSubtype":"90370_404Ty_3.1","metadata":{"assemblyId":"MjViNGFkZDYtMmU1NC00ND","speciesId":"90370","assemblyName":"9953_5_36_IndoA359_2010","date":{"year":"2010"},"position":{"latitude":-0.789275,"longitude":113.921327},"pmid":"25961941","userDefined":{"country":"Indonesia","accuracy":"1","genotype":"3.1.2","strain":"A359","source":"Blood","accession":"ERR326632","study accession":"ERP001718"},"metrics":{"totalNumberOfContigs":47,"assemblyN50Data":{"sequenceNumber":8,"sum":2414390,"sequenceLength":204308},"contigN50":204308,"sumsOfNucleotidesInDnaStrings":[480747,942909,1238894,1534329,1784512,2004029,2210082,2414390,2599638,2772812,2930907,3085932,3237719,3387102,3531866,3676326,3793380,3906862,4004836,4085269,4150000,4213071,4273699,4329942,4383361,4431998,4475896,4509058,4540974,4571919,4598243,4620588,4640793,4657827,4670210,4681471,4690050,4697162,4703848,4708346,4712378,4716311,4719044,4720833,4721990,4722642,4723044],"totalNumberOfNucleotidesInDnaStrings":4723044,"totalNumberOfNsInDnaStrings":5,"averageNumberOfNucleotidesInDnaStrings":100490,"smallestNumberOfNucleotidesInDnaStrings":402,"biggestNumberOfNucleotidesInDnaStrings":480747,"gcContent":"52.1"}},"analysis":{"st":"2","mlst":"1_1_2_1_1_1_5","core":{"size":3914,"percentMatched":99.9,"percentAssemblyMatched":76.2},"resistanceProfile":{"AMP":{"name":"AMP","state":"UNKNOWN","mechanisms":[]},"CEP":{"name":"CEP","state":"UNKNOWN","mechanisms":[]},"CHL":{"name":"CHL","state":"UNKNOWN","mechanisms":[]},"CIP":{"name":"CIP","state":"UNKNOWN","mechanisms":[]},"NAL":{"name":"NAL","state":"UNKNOWN","mechanisms":[]},"SMX":{"name":"SMX","state":"UNKNOWN","mechanisms":[]},"TMP":{"name":"TMP","state":"UNKNOWN","mechanisms":[]},"SXT":{"name":"SXT","state":"UNKNOWN","mechanisms":[]},"TCY":{"name":"TCY","state":"UNKNOWN","mechanisms":[]},"AZM":{"name":"AZM","state":"UNKNOWN","mechanisms":[]},"SIL":{"name":"SIL","state":"UNKNOWN","mechanisms":[]}}}},"NmU4MDkwYmYtOGI1Mi00Nj":{"populationSubtype":"90370_404Ty_3.1","metadata":{"assemblyId":"NmU4MDkwYmYtOGI1Mi00Nj","speciesId":"90370","assemblyName":"10593_2_57_Mali08-10571_2008","date":{"year":"2008"},"position":{"latitude":17.570692,"longitude":-3.996166},"pmid":"25961941","userDefined":{"country":"Mali","accuracy":"1","genotype":"3.1.1","strain":"08-10571","source":"Not provided","accession":"ERR360670","study accession":"ERP001718"},"metrics":{"totalNumberOfContigs":51,"assemblyN50Data":{"sequenceNumber":9,"sum":2601128,"sequenceLength":185425},"contigN50":185425,"sumsOfNucleotidesInDnaStrings":[466379,859089,1214800,1510211,1760163,2005427,2211419,2415703,2601128,2774379,2946330,3105027,3258735,3408157,3552862,3697231,3810724,3908477,3989329,4062811,4127918,4190937,4251591,4307849,4361233,4409903,4455893,4501883,4547221,4591057,4634570,4667732,4699571,4730468,4760936,4788028,4814394,4836739,4849066,4859957,4869705,4878252,4885378,4892053,4896391,4900400,4903755,4906428,4908245,4908907,4909273],"totalNumberOfNucleotidesInDnaStrings":4909273,"totalNumberOfNsInDnaStrings":44,"averageNumberOfNucleotidesInDnaStrings":96260,"smallestNumberOfNucleotidesInDnaStrings":366,"biggestNumberOfNucleotidesInDnaStrings":466379,"gcContent":"51.9"}},"analysis":{"st":"2","mlst":"1_1_2_1_1_1_5","core":{"size":3912,"percentMatched":99.9,"percentAssemblyMatched":73.2},"resistanceProfile":{"AMP":{"name":"AMP","state":"RESISTANT","mechanisms":["TEM-1"]},"CEP":{"name":"CEP","state":"UNKNOWN","mechanisms":[]},"CHL":{"name":"CHL","state":"RESISTANT","mechanisms":["catA1"]},"CIP":{"name":"CIP","state":"UNKNOWN","mechanisms":[]},"NAL":{"name":"NAL","state":"UNKNOWN","mechanisms":[]},"SMX":{"name":"SMX","state":"RESISTANT","mechanisms":["sulI"]},"TMP":{"name":"TMP","state":"RESISTANT","mechanisms":["dfrA1"]},"SXT":{"name":"SXT","state":"RESISTANT","mechanisms":["sulI-dfrA1"]},"TCY":{"name":"TCY","state":"RESISTANT","mechanisms":["tetR","tetA"]},"AZM":{"name":"AZM","state":"UNKNOWN","mechanisms":[]},"SIL":{"name":"SIL","state":"UNKNOWN","mechanisms":[]}}}},"ODU1NmVjMGQtNzRhYS00NT":{"populationSubtype":"90370_404Ty_3.1","metadata":{"assemblyId":"ODU1NmVjMGQtNzRhYS00NT","speciesId":"90370","assemblyName":"9953_5_34_IndoA357_2009","date":{"year":"2009"},"position":{"latitude":-0.789275,"longitude":113.921327},"pmid":"25961941","userDefined":{"country":"Indonesia","accuracy":"1","genotype":"3.1.2","strain":"A357","source":"Blood","accession":"ERR326630","study accession":"ERP001718"},"metrics":{"totalNumberOfContigs":46,"assemblyN50Data":{"sequenceNumber":9,"sum":2331930,"sequenceLength":185814},"contigN50":185814,"sumsOfNucleotidesInDnaStrings":[466381,762412,1015060,1265125,1512998,1735837,1941813,2146116,2331930,2505103,2668165,2824551,2979674,3133244,3282633,3427402,3571786,3688833,3804816,3902802,3983671,4049217,4112179,4172819,4229062,4277717,4321615,4364389,4406417,4439948,4473121,4504078,4526423,4543463,4555846,4564437,4571549,4578235,4582741,4586547,4589280,4591574,4593407,4595063,4595632,4595767],"totalNumberOfNucleotidesInDnaStrings":4595767,"totalNumberOfNsInDnaStrings":3,"averageNumberOfNucleotidesInDnaStrings":99907,"smallestNumberOfNucleotidesInDnaStrings":135,"biggestNumberOfNucleotidesInDnaStrings":466381,"gcContent":"52.2"}},"analysis":{"st":"2","mlst":"1_1_2_1_1_1_5","core":{"size":3917,"percentMatched":100,"percentAssemblyMatched":78.4},"resistanceProfile":{"AMP":{"name":"AMP","state":"UNKNOWN","mechanisms":[]},"CEP":{"name":"CEP","state":"UNKNOWN","mechanisms":[]},"CHL":{"name":"CHL","state":"UNKNOWN","mechanisms":[]},"CIP":{"name":"CIP","state":"UNKNOWN","mechanisms":[]},"NAL":{"name":"NAL","state":"UNKNOWN","mechanisms":[]},"SMX":{"name":"SMX","state":"UNKNOWN","mechanisms":[]},"TMP":{"name":"TMP","state":"UNKNOWN","mechanisms":[]},"SXT":{"name":"SXT","state":"UNKNOWN","mechanisms":[]},"TCY":{"name":"TCY","state":"UNKNOWN","mechanisms":[]},"AZM":{"name":"AZM","state":"UNKNOWN","mechanisms":[]},"SIL":{"name":"SIL","state":"UNKNOWN","mechanisms":[]}}}},"OWNjODY4YTItYmI0Yi00M2":{"populationSubtype":"90370_404Ty_3.1","metadata":{"assemblyId":"OWNjODY4YTItYmI0Yi00M2","speciesId":"90370","assemblyName":"10540_1_4_IndoE03-4983_2003","date":{"year":"2003"},"position":{"latitude":-0.789275,"longitude":113.921327},"pmid":"25961941","userDefined":{"country":"Indonesia","accuracy":"1","genotype":"3.1.2","strain":"E03-4983","source":"Not provided","accession":"ERR352601","study accession":"ERP001718"},"metrics":{"totalNumberOfContigs":61,"assemblyN50Data":{"sequenceNumber":8,"sum":2472485,"sequenceLength":210293},"contigN50":210293,"sumsOfNucleotidesInDnaStrings":[678939,1072496,1325204,1575544,1825118,2044332,2262192,2472485,2679418,2864829,3027919,3182946,3336647,3486112,3630887,3744405,3842419,3934570,4015795,4096671,4161990,4225071,4285725,4341943,4396448,4440346,4483772,4526629,4559760,4590716,4617021,4639309,4659474,4676472,4688850,4697469,4704556,4711214,4717627,4722457,4726944,4730747,4733482,4734687,4735802,4736898,4737948,4738972,4739993,4740928,4741813,4742678,4743349,4744015,4744679,4745340,4745906,4746444,4746844,4747230,4747607],"totalNumberOfNucleotidesInDnaStrings":4747607,"totalNumberOfNsInDnaStrings":61,"averageNumberOfNucleotidesInDnaStrings":77829,"smallestNumberOfNucleotidesInDnaStrings":377,"biggestNumberOfNucleotidesInDnaStrings":678939,"gcContent":"52.0"}},"analysis":{"st":"2","mlst":"1_1_2_1_1_1_5","core":{"size":3915,"percentMatched":99.9,"percentAssemblyMatched":75.9},"resistanceProfile":{"AMP":{"name":"AMP","state":"UNKNOWN","mechanisms":[]},"CEP":{"name":"CEP","state":"UNKNOWN","mechanisms":[]},"CHL":{"name":"CHL","state":"UNKNOWN","mechanisms":[]},"CIP":{"name":"CIP","state":"UNKNOWN","mechanisms":[]},"NAL":{"name":"NAL","state":"UNKNOWN","mechanisms":[]},"SMX":{"name":"SMX","state":"UNKNOWN","mechanisms":[]},"TMP":{"name":"TMP","state":"UNKNOWN","mechanisms":[]},"SXT":{"name":"SXT","state":"UNKNOWN","mechanisms":[]},"TCY":{"name":"TCY","state":"UNKNOWN","mechanisms":[]},"AZM":{"name":"AZM","state":"UNKNOWN","mechanisms":[]},"SIL":{"name":"SIL","state":"UNKNOWN","mechanisms":[]}}}},"NjA2ZjkxZTQtMzc4ZC00OD":{"populationSubtype":"90370_404Ty_3.1","metadata":{"assemblyId":"NjA2ZjkxZTQtMzc4ZC00OD","speciesId":"90370","assemblyName":"10593_2_62_BurFas06-1513_2006","date":{"year":"2006"},"position":{"latitude":12.238333,"longitude":-1.561593},"pmid":"25961941","userDefined":{"country":"Burkina Faso","accuracy":"1","genotype":"3.1.1","strain":"06-1513","source":"Not provided","accession":"ERR360675","study accession":"ERP001718"},"metrics":{"totalNumberOfContigs":69,"assemblyN50Data":{"sequenceNumber":8,"sum":2463295,"sequenceLength":206004},"contigN50":206004,"sumsOfNucleotidesInDnaStrings":[466597,923700,1317212,1567218,1813060,2039435,2257291,2463295,2648912,2825432,2983828,3138872,3292554,3441881,3586604,3704602,3802315,3894632,3981716,4046983,4109866,4170673,4226865,4280243,4332682,4378694,4424682,4468535,4511393,4544555,4576463,4607350,4637818,4664122,4686426,4706987,4727149,4745014,4762018,4778646,4790962,4802617,4812380,4820892,4827960,4834880,4841524,4847842,4853970,4859505,4864883,4869380,4873718,4878029,4881836,4885102,4888361,4891226,4893924,4896374,4898473,4900420,4902291,4904154,4906015,4907286,4907997,4908662,4908986],"totalNumberOfNucleotidesInDnaStrings":4908986,"totalNumberOfNsInDnaStrings":41,"averageNumberOfNucleotidesInDnaStrings":71144,"smallestNumberOfNucleotidesInDnaStrings":324,"biggestNumberOfNucleotidesInDnaStrings":466597,"gcContent":"51.9"}},"analysis":{"st":"2","mlst":"1_1_2_1_1_1_5","core":{"size":3913,"percentMatched":99.9,"percentAssemblyMatched":73.2},"resistanceProfile":{"AMP":{"name":"AMP","state":"RESISTANT","mechanisms":["TEM-1"]},"CEP":{"name":"CEP","state":"UNKNOWN","mechanisms":[]},"CHL":{"name":"CHL","state":"RESISTANT","mechanisms":["catA1"]},"CIP":{"name":"CIP","state":"UNKNOWN","mechanisms":[]},"NAL":{"name":"NAL","state":"UNKNOWN","mechanisms":[]},"SMX":{"name":"SMX","state":"RESISTANT","mechanisms":["sulI"]},"TMP":{"name":"TMP","state":"RESISTANT","mechanisms":["dfrA1"]},"SXT":{"name":"SXT","state":"RESISTANT","mechanisms":["sulI-dfrA1"]},"TCY":{"name":"TCY","state":"RESISTANT","mechanisms":["tetR","tetA"]},"AZM":{"name":"AZM","state":"UNKNOWN","mechanisms":[]},"SIL":{"name":"SIL","state":"UNKNOWN","mechanisms":[]}}}},"ZjY0OGZjMjAtYTk1Yy00NT":{"populationSubtype":"90370_404Ty_3.1","metadata":{"assemblyId":"ZjY0OGZjMjAtYTk1Yy00NT","speciesId":"90370","assemblyName":"10492_1_46_IndoMDUST253_2010","date":{"year":"2010"},"position":{"latitude":-0.789275,"longitude":113.921327},"pmid":"25961941","userDefined":{"country":"Indonesia","accuracy":"1","genotype":"3.1.2","strain":"MDUST253","source":"Blood","accession":"ERR352299","study accession":"ERP001718"},"metrics":{"totalNumberOfContigs":57,"assemblyN50Data":{"sequenceNumber":10,"sum":2507794,"sequenceLength":185521},"contigN50":185521,"sumsOfNucleotidesInDnaStrings":[466435,729357,979700,1229542,1475021,1693961,1911857,2117968,2322273,2507794,2681087,2852959,3015902,3169626,3319049,3463738,3599449,3729242,3842772,3940798,4021639,4086942,4149949,4210540,4266697,4315350,4359212,4402788,4446156,4489008,4522134,4554048,4584925,4611222,4635993,4658296,4678458,4690766,4699252,4706476,4713521,4720168,4725867,4730352,4734147,4737502,4740636,4743555,4746217,4747953,4749299,4750561,4751280,4751934,4752541,4752910,4753253],"totalNumberOfNucleotidesInDnaStrings":4753253,"totalNumberOfNsInDnaStrings":5904,"averageNumberOfNucleotidesInDnaStrings":83390,"smallestNumberOfNucleotidesInDnaStrings":343,"biggestNumberOfNucleotidesInDnaStrings":466435,"gcContent":"52.0"}},"analysis":{"st":"2","mlst":"1_1_2_1_1_1_5","core":{"size":3910,"percentMatched":99.8,"percentAssemblyMatched":75.6},"resistanceProfile":{"AMP":{"name":"AMP","state":"UNKNOWN","mechanisms":[]},"CEP":{"name":"CEP","state":"UNKNOWN","mechanisms":[]},"CHL":{"name":"CHL","state":"UNKNOWN","mechanisms":[]},"CIP":{"name":"CIP","state":"UNKNOWN","mechanisms":[]},"NAL":{"name":"NAL","state":"UNKNOWN","mechanisms":[]},"SMX":{"name":"SMX","state":"UNKNOWN","mechanisms":[]},"TMP":{"name":"TMP","state":"UNKNOWN","mechanisms":[]},"SXT":{"name":"SXT","state":"UNKNOWN","mechanisms":[]},"TCY":{"name":"TCY","state":"UNKNOWN","mechanisms":[]},"AZM":{"name":"AZM","state":"UNKNOWN","mechanisms":[]},"SIL":{"name":"SIL","state":"UNKNOWN","mechanisms":[]}}}},"NWUwMTI1MjEtODA0MC00Yz":{"populationSubtype":"90370_404Ty_3.1","metadata":{"assemblyId":"NWUwMTI1MjEtODA0MC00Yz","speciesId":"90370","assemblyName":"9953_5_23_IndoA341_2008","date":{"year":"2008"},"position":{"latitude":-0.789275,"longitude":113.921327},"pmid":"25961941","userDefined":{"country":"Indonesia","accuracy":"1","genotype":"3.1.2","strain":"A341","source":"Blood","accession":"ERR326619","study accession":"ERP001718"},"metrics":{"totalNumberOfContigs":49,"assemblyN50Data":{"sequenceNumber":9,"sum":2333383,"sequenceLength":185425},"contigN50":185425,"sumsOfNucleotidesInDnaStrings":[466394,762217,1025154,1274755,1519696,1737565,1943651,2147958,2333383,2507410,2680587,2835720,2989443,3138832,3283601,3422758,3552824,3668218,3766204,3853383,3918717,3981679,4042319,4098562,4147477,4196263,4240161,4283771,4327152,4360325,4392554,4424443,4455400,4479379,4501724,4521941,4538987,4551370,4560669,4569260,4576372,4583058,4587555,4590288,4592376,4594058,4594733,4595289,4595642],"totalNumberOfNucleotidesInDnaStrings":4595642,"totalNumberOfNsInDnaStrings":1,"averageNumberOfNucleotidesInDnaStrings":93788,"smallestNumberOfNucleotidesInDnaStrings":353,"biggestNumberOfNucleotidesInDnaStrings":466394,"gcContent":"52.2"}},"analysis":{"st":"2","mlst":"1_1_2_1_1_1_5","core":{"size":3917,"percentMatched":100,"percentAssemblyMatched":78.4},"resistanceProfile":{"AMP":{"name":"AMP","state":"UNKNOWN","mechanisms":[]},"CEP":{"name":"CEP","state":"UNKNOWN","mechanisms":[]},"CHL":{"name":"CHL","state":"UNKNOWN","mechanisms":[]},"CIP":{"name":"CIP","state":"UNKNOWN","mechanisms":[]},"NAL":{"name":"NAL","state":"UNKNOWN","mechanisms":[]},"SMX":{"name":"SMX","state":"UNKNOWN","mechanisms":[]},"TMP":{"name":"TMP","state":"UNKNOWN","mechanisms":[]},"SXT":{"name":"SXT","state":"UNKNOWN","mechanisms":[]},"TCY":{"name":"TCY","state":"UNKNOWN","mechanisms":[]},"AZM":{"name":"AZM","state":"UNKNOWN","mechanisms":[]},"SIL":{"name":"SIL","state":"UNKNOWN","mechanisms":[]}}}},"YTdhNWQwZjgtZmY1OC00Mm":{"populationSubtype":"90370_404Ty_3.1","metadata":{"assemblyId":"YTdhNWQwZjgtZmY1OC00Mm","speciesId":"90370","assemblyName":"10593_2_19_BurFas06-1510_2006","date":{"year":"2006"},"position":{"latitude":12.238333,"longitude":-1.561593},"pmid":"25961941","userDefined":{"country":"Burkina Faso","accuracy":"1","genotype":"3.1.1","strain":"06-1510","source":"Not provided","accession":"ERR360632","study accession":"ERP001718"},"metrics":{"totalNumberOfContigs":52,"assemblyN50Data":{"sequenceNumber":9,"sum":2459803,"sequenceLength":204276},"contigN50":204276,"sumsOfNucleotidesInDnaStrings":[466957,859816,1112555,1362726,1607995,1829763,2049463,2255527,2459803,2645639,2804138,2959186,3112885,3262257,3407018,3551369,3686998,3800523,3898355,3985458,4058940,4124026,4187098,4247750,4303966,4357350,4405945,4451956,4497946,4541767,4585243,4628095,4661216,4693125,4724076,4754544,4780851,4803176,4823394,4840411,4852789,4863687,4873440,4882059,4889169,4895817,4900964,4905207,4907914,4909776,4910443,4910767],"totalNumberOfNucleotidesInDnaStrings":4910767,"totalNumberOfNsInDnaStrings":5,"averageNumberOfNucleotidesInDnaStrings":94437,"smallestNumberOfNucleotidesInDnaStrings":324,"biggestNumberOfNucleotidesInDnaStrings":466957,"gcContent":"51.9"}},"analysis":{"st":"2","mlst":"1_1_2_1_1_1_5","core":{"size":3912,"percentMatched":99.9,"percentAssemblyMatched":73.2},"resistanceProfile":{"AMP":{"name":"AMP","state":"RESISTANT","mechanisms":["TEM-1"]},"CEP":{"name":"CEP","state":"UNKNOWN","mechanisms":[]},"CHL":{"name":"CHL","state":"RESISTANT","mechanisms":["catA1"]},"CIP":{"name":"CIP","state":"UNKNOWN","mechanisms":[]},"NAL":{"name":"NAL","state":"UNKNOWN","mechanisms":[]},"SMX":{"name":"SMX","state":"RESISTANT","mechanisms":["sulI"]},"TMP":{"name":"TMP","state":"RESISTANT","mechanisms":["dfrA1"]},"SXT":{"name":"SXT","state":"RESISTANT","mechanisms":["sulI-dfrA1"]},"TCY":{"name":"TCY","state":"RESISTANT","mechanisms":["tetR","tetA"]},"AZM":{"name":"AZM","state":"UNKNOWN","mechanisms":[]},"SIL":{"name":"SIL","state":"UNKNOWN","mechanisms":[]}}}},"YjEzOTJjN2YtMWJjMy00ZT":{"populationSubtype":"90370_404Ty_3.1","metadata":{"assemblyId":"YjEzOTJjN2YtMWJjMy00ZT","speciesId":"90370","assemblyName":"10349_1_47_Ind09383_2009","date":{"year":"2009"},"position":{"latitude":20.593684,"longitude":78.96288},"pmid":"25961941","userDefined":{"country":"India","accuracy":"1","genotype":"3.1.0","strain":"ERL09383","source":"Stool","accession":"ERR343295","study accession":"ERP001718"},"metrics":{"totalNumberOfContigs":58,"assemblyN50Data":{"sequenceNumber":10,"sum":2507286,"sequenceLength":185690},"contigN50":185690,"sumsOfNucleotidesInDnaStrings":[466728,729571,979961,1229413,1474547,1693452,1911320,2117142,2321596,2507286,2680810,2852876,3006772,3156182,3300951,3436730,3566690,3680208,3782526,3880384,3961218,4024185,4084822,4143423,4199678,4253262,4301856,4345760,4389407,4432820,4475703,4508866,4540764,4571670,4597954,4620663,4640789,4653085,4664265,4672737,4680460,4687496,4694115,4700414,4704744,4708531,4711886,4715020,4717968,4720590,4722327,4723589,4724449,4725185,4725820,4726188,4726547,4726892],"totalNumberOfNucleotidesInDnaStrings":4726892,"totalNumberOfNsInDnaStrings":15747,"averageNumberOfNucleotidesInDnaStrings":81498,"smallestNumberOfNucleotidesInDnaStrings":345,"biggestNumberOfNucleotidesInDnaStrings":466728,"gcContent":"52.1"}},"analysis":{"st":"2","mlst":"1_1_2_1_1_1_5","core":{"size":3889,"percentMatched":99.3,"percentAssemblyMatched":75.6},"resistanceProfile":{"AMP":{"name":"AMP","state":"UNKNOWN","mechanisms":[]},"CEP":{"name":"CEP","state":"UNKNOWN","mechanisms":[]},"CHL":{"name":"CHL","state":"UNKNOWN","mechanisms":[]},"CIP":{"name":"CIP","state":"RESISTANT","mechanisms":["gyrA_S83F"]},"NAL":{"name":"NAL","state":"RESISTANT","mechanisms":["gyrA_S83F"]},"SMX":{"name":"SMX","state":"UNKNOWN","mechanisms":[]},"TMP":{"name":"TMP","state":"UNKNOWN","mechanisms":[]},"SXT":{"name":"SXT","state":"UNKNOWN","mechanisms":[]},"TCY":{"name":"TCY","state":"UNKNOWN","mechanisms":[]},"AZM":{"name":"AZM","state":"UNKNOWN","mechanisms":[]},"SIL":{"name":"SIL","state":"UNKNOWN","mechanisms":[]}}}},"YjI2ZmEwYTUtNTI4OC00ND":{"populationSubtype":"90370_404Ty_3.1","metadata":{"assemblyId":"YjI2ZmEwYTUtNTI4OC00ND","speciesId":"90370","assemblyName":"10060_6_76_Tan129-0177-M_2007","date":{"year":"2007"},"position":{"latitude":-6.369028,"longitude":34.888822},"pmid":"25961941","userDefined":{"country":"Tanzania","accuracy":"1","genotype":"3.1.0","strain":"129-0177-M","source":"Blood","accession":"ERR331373","study accession":"ERP001718"},"metrics":{"totalNumberOfContigs":40,"assemblyN50Data":{"sequenceNumber":8,"sum":2401080,"sequenceLength":207420},"contigN50":207420,"sumsOfNucleotidesInDnaStrings":[480593,946976,1262657,1515384,1765494,1983363,2193660,2401080,2607399,2792210,2964161,3127201,3280924,3434425,3583807,3728576,3867920,3981432,4079419,4171669,4236400,4299483,4360123,4416366,4460264,4503643,4546508,4579670,4610627,4636944,4659289,4679477,4691860,4700451,4707563,4714245,4718736,4722562,4725295,4725968],"totalNumberOfNucleotidesInDnaStrings":4725968,"totalNumberOfNsInDnaStrings":36,"averageNumberOfNucleotidesInDnaStrings":118149,"smallestNumberOfNucleotidesInDnaStrings":673,"biggestNumberOfNucleotidesInDnaStrings":480593,"gcContent":"52.1"}},"analysis":{"st":"2","mlst":"1_1_2_1_1_1_5","core":{"size":3917,"percentMatched":100,"percentAssemblyMatched":76.3},"resistanceProfile":{"AMP":{"name":"AMP","state":"UNKNOWN","mechanisms":[]},"CEP":{"name":"CEP","state":"UNKNOWN","mechanisms":[]},"CHL":{"name":"CHL","state":"UNKNOWN","mechanisms":[]},"CIP":{"name":"CIP","state":"UNKNOWN","mechanisms":[]},"NAL":{"name":"NAL","state":"UNKNOWN","mechanisms":[]},"SMX":{"name":"SMX","state":"UNKNOWN","mechanisms":[]},"TMP":{"name":"TMP","state":"UNKNOWN","mechanisms":[]},"SXT":{"name":"SXT","state":"UNKNOWN","mechanisms":[]},"TCY":{"name":"TCY","state":"UNKNOWN","mechanisms":[]},"AZM":{"name":"AZM","state":"UNKNOWN","mechanisms":[]},"SIL":{"name":"SIL","state":"UNKNOWN","mechanisms":[]}}}},"ODgyMGViMGQtNzE2My00Nm":{"populationSubtype":"90370_404Ty_3.1","metadata":{"assemblyId":"ODgyMGViMGQtNzE2My00Nm","speciesId":"90370","assemblyName":"10593_2_69_Tog06-7490_2006","date":{"year":"2006"},"position":{"latitude":8.619543,"longitude":0.824782},"pmid":"25961941","userDefined":{"country":"Togo","accuracy":"1","genotype":"3.1.1","strain":"06-7490","source":"Not provided","accession":"ERR360682","study accession":"ERP001718"},"metrics":{"totalNumberOfContigs":54,"assemblyN50Data":{"sequenceNumber":9,"sum":2590911,"sequenceLength":204419},"contigN50":204419,"sumsOfNucleotidesInDnaStrings":[602484,995343,1247984,1497910,1743167,1962831,2180659,2386492,2590911,2776681,2949928,3108386,3263373,3417045,3566417,3711154,3824638,3922470,4003331,4069103,4131967,4192622,4248809,4302193,4350825,4397378,4443367,4487239,4530774,4574200,4617034,4650136,4681975,4712906,4743396,4770342,4796789,4819092,4836084,4848367,4858113,4866661,4873827,4880931,4887562,4892836,4897323,4901355,4905154,4907869,4909776,4910441,4910825,4911149],"totalNumberOfNucleotidesInDnaStrings":4911149,"totalNumberOfNsInDnaStrings":8,"averageNumberOfNucleotidesInDnaStrings":90947,"smallestNumberOfNucleotidesInDnaStrings":324,"biggestNumberOfNucleotidesInDnaStrings":602484,"gcContent":"51.9"}},"analysis":{"st":"2","mlst":"1_1_2_1_1_1_5","core":{"size":3912,"percentMatched":99.9,"percentAssemblyMatched":73.2},"resistanceProfile":{"AMP":{"name":"AMP","state":"RESISTANT","mechanisms":["TEM-1"]},"CEP":{"name":"CEP","state":"UNKNOWN","mechanisms":[]},"CHL":{"name":"CHL","state":"RESISTANT","mechanisms":["catA1"]},"CIP":{"name":"CIP","state":"UNKNOWN","mechanisms":[]},"NAL":{"name":"NAL","state":"UNKNOWN","mechanisms":[]},"SMX":{"name":"SMX","state":"RESISTANT","mechanisms":["sulI"]},"TMP":{"name":"TMP","state":"RESISTANT","mechanisms":["dfrA1"]},"SXT":{"name":"SXT","state":"RESISTANT","mechanisms":["sulI-dfrA1"]},"TCY":{"name":"TCY","state":"RESISTANT","mechanisms":["tetR","tetA"]},"AZM":{"name":"AZM","state":"UNKNOWN","mechanisms":[]},"SIL":{"name":"SIL","state":"UNKNOWN","mechanisms":[]}}}},"NWI4Mzg3YmQtYTUwMS00Zm":{"populationSubtype":"90370_404Ty_3.1","metadata":{"assemblyId":"NWI4Mzg3YmQtYTUwMS00Zm","speciesId":"90370","assemblyName":"M592","date":{"year":"1937"},"position":{"latitude":null,"longitude":null},"pmid":"26411565","userDefined":{"country":"Unknown","accuracy":"","genotype":"3.1.2","strain":"B 5105","source":"Blood culture","accession":"ERS203118","study accession":"ERP001784 "},"metrics":{"totalNumberOfContigs":51,"assemblyN50Data":{"sequenceNumber":10,"sum":2506566,"sequenceLength":185318},"contigN50":185318,"sumsOfNucleotidesInDnaStrings":[466397,729344,979499,1229094,1474038,1692993,1910851,2116909,2321248,2506566,2681606,2853575,3016640,3170373,3319958,3464728,3594793,3708306,3806268,3898659,3985763,4072498,4137225,4200299,4260981,4317210,4366140,4410027,4453382,4496251,4534516,4567659,4599566,4630519,4656840,4679176,4699397,4711771,4720362,4728226,4735329,4741999,4747144,4750963,4754466,4757821,4760955,4763684,4764946,4765613,4765994],"totalNumberOfNucleotidesInDnaStrings":4765994,"totalNumberOfNsInDnaStrings":7,"averageNumberOfNucleotidesInDnaStrings":93450,"smallestNumberOfNucleotidesInDnaStrings":381,"biggestNumberOfNucleotidesInDnaStrings":466397,"gcContent":"52.0"}},"analysis":{"st":"2","mlst":"1_1_2_1_1_1_5","core":{"size":3917,"percentMatched":100,"percentAssemblyMatched":75.6},"resistanceProfile":{"AMP":{"name":"AMP","state":"UNKNOWN","mechanisms":[]},"CEP":{"name":"CEP","state":"UNKNOWN","mechanisms":[]},"CHL":{"name":"CHL","state":"UNKNOWN","mechanisms":[]},"CIP":{"name":"CIP","state":"UNKNOWN","mechanisms":[]},"NAL":{"name":"NAL","state":"UNKNOWN","mechanisms":[]},"SMX":{"name":"SMX","state":"UNKNOWN","mechanisms":[]},"TMP":{"name":"TMP","state":"UNKNOWN","mechanisms":[]},"SXT":{"name":"SXT","state":"UNKNOWN","mechanisms":[]},"TCY":{"name":"TCY","state":"UNKNOWN","mechanisms":[]},"AZM":{"name":"AZM","state":"UNKNOWN","mechanisms":[]},"SIL":{"name":"SIL","state":"UNKNOWN","mechanisms":[]}}}},"ZWRkNmZmMTEtMWMxMC00MD":{"populationSubtype":"90370_404Ty_3.1","metadata":{"assemblyId":"ZWRkNmZmMTEtMWMxMC00MD","speciesId":"90370","assemblyName":"10592_2_81_France_African_name09-2213_2009","date":{"year":"2009"},"position":{"latitude":46.227638,"longitude":2.213749},"pmid":"25961941","userDefined":{"country":"France (mother-child, African name)","accuracy":"1","genotype":"3.1.1","strain":"09-2213","source":"Not provided","accession":"ERR360529","study accession":"ERP001718"},"metrics":{"totalNumberOfContigs":76,"assemblyN50Data":{"sequenceNumber":9,"sum":2454796,"sequenceLength":204288},"contigN50":204288,"sumsOfNucleotidesInDnaStrings":[466390,859248,1112280,1361943,1607309,1826733,2044558,2250508,2454796,2639716,2812958,2984910,3138623,3287957,3432682,3568269,3687841,3806019,3903729,3990810,4056163,4119088,4179682,4235875,4284536,4333139,4376987,4420469,4463308,4496470,4528301,4559220,4586168,4608513,4626938,4639278,4650173,4658683,4665751,4672432,4676915,4681374,4684072,4686750,4689304,4691819,4693701,4695377,4696915,4698378,4699841,4701276,4702656,4703996,4705189,4706304,4707297,4708242,4709175,4710107,4711022,4711863,4712606,4713265,4713920,4714567,4715151,4715731,4716209,4716660,4717110,4717549,4717974,4718377,4718734,4719058],"totalNumberOfNucleotidesInDnaStrings":4719058,"totalNumberOfNsInDnaStrings":203,"averageNumberOfNucleotidesInDnaStrings":62092,"smallestNumberOfNucleotidesInDnaStrings":324,"biggestNumberOfNucleotidesInDnaStrings":466390,"gcContent":"52.1"}},"analysis":{"st":"2","mlst":"1_1_2_1_1_1_5","core":{"size":3902,"percentMatched":99.6,"percentAssemblyMatched":75.9},"resistanceProfile":{"AMP":{"name":"AMP","state":"UNKNOWN","mechanisms":[]},"CEP":{"name":"CEP","state":"UNKNOWN","mechanisms":[]},"CHL":{"name":"CHL","state":"UNKNOWN","mechanisms":[]},"CIP":{"name":"CIP","state":"UNKNOWN","mechanisms":[]},"NAL":{"name":"NAL","state":"UNKNOWN","mechanisms":[]},"SMX":{"name":"SMX","state":"UNKNOWN","mechanisms":[]},"TMP":{"name":"TMP","state":"UNKNOWN","mechanisms":[]},"SXT":{"name":"SXT","state":"UNKNOWN","mechanisms":[]},"TCY":{"name":"TCY","state":"UNKNOWN","mechanisms":[]},"AZM":{"name":"AZM","state":"UNKNOWN","mechanisms":[]},"SIL":{"name":"SIL","state":"UNKNOWN","mechanisms":[]}}}},"YjYzMjMxYjItZWZhMS00Mm":{"populationSubtype":"90370_404Ty_3.1","metadata":{"assemblyId":"YjYzMjMxYjItZWZhMS00Mm","speciesId":"90370","assemblyName":"11800_1_14_UnkH05272442_2005","date":{"year":"2005"},"position":{"latitude":null,"longitude":null},"pmid":"","userDefined":{"country":"Unknown","accuracy":"","genotype":"3.1.1","strain":"H05272442","source":"Blood","accession":"ERR1017041","study accession":""},"metrics":{"totalNumberOfContigs":70,"assemblyN50Data":{"sequenceNumber":11,"sum":2505074,"sequenceLength":173209},"contigN50":173209,"sumsOfNucleotidesInDnaStrings":[262774,512686,762123,1006797,1241116,1473220,1692113,1909914,2127573,2331865,2505074,2662461,2816092,2960753,3104503,3234216,3362847,3476334,3583610,3681281,3762451,3843284,3908378,3971220,4031772,4087902,4141781,4192182,4240747,4284502,4328044,4370870,4413692,4452706,4489633,4524670,4557737,4590334,4621914,4652758,4680742,4707301,4733585,4755857,4777849,4797975,4814955,4827226,4836949,4845408,4853587,4860587,4867206,4873709,4880008,4884338,4888125,4891259,4894207,4896829,4899028,4900818,4902356,4903618,4904478,4905102,4905576,4906048,4906385,4906696],"totalNumberOfNucleotidesInDnaStrings":4906696,"totalNumberOfNsInDnaStrings":14071,"averageNumberOfNucleotidesInDnaStrings":70095,"smallestNumberOfNucleotidesInDnaStrings":311,"biggestNumberOfNucleotidesInDnaStrings":262774,"gcContent":"51.9"}},"analysis":{"st":"2","mlst":"1_1_2_1_1_1_5","core":{"size":3902,"percentMatched":99.6,"percentAssemblyMatched":73},"resistanceProfile":{"AMP":{"name":"AMP","state":"RESISTANT","mechanisms":["TEM-1"]},"CEP":{"name":"CEP","state":"UNKNOWN","mechanisms":[]},"CHL":{"name":"CHL","state":"RESISTANT","mechanisms":["catA1"]},"CIP":{"name":"CIP","state":"RESISTANT","mechanisms":["gyrA_D87N"]},"NAL":{"name":"NAL","state":"RESISTANT","mechanisms":["gyrA_D87N"]},"SMX":{"name":"SMX","state":"RESISTANT","mechanisms":["sulI"]},"TMP":{"name":"TMP","state":"RESISTANT","mechanisms":["dfrA1"]},"SXT":{"name":"SXT","state":"RESISTANT","mechanisms":["sulI-dfrA1"]},"TCY":{"name":"TCY","state":"RESISTANT","mechanisms":["tetR"]},"AZM":{"name":"AZM","state":"UNKNOWN","mechanisms":[]},"SIL":{"name":"SIL","state":"UNKNOWN","mechanisms":[]}}}},"MDZlODBhMWItNjU4Zi00MG":{"populationSubtype":"90370_404Ty_3.1","metadata":{"assemblyId":"MDZlODBhMWItNjU4Zi00MG","speciesId":"90370","assemblyName":"10593_2_73_IvoCoa08-4327_2008","date":{"year":"2008"},"position":{"latitude":7.539989,"longitude":-5.54708},"pmid":"25961941","userDefined":{"country":"Ivory Coast","accuracy":"1","genotype":"3.1.1","strain":"08-4327","source":"Not provided","accession":"ERR360686","study accession":"ERP001718"},"metrics":{"totalNumberOfContigs":53,"assemblyN50Data":{"sequenceNumber":9,"sum":2571148,"sequenceLength":173246},"contigN50":173246,"sumsOfNucleotidesInDnaStrings":[716435,1109941,1405729,1611596,1816085,2018298,2212506,2397902,2571148,2743062,2901491,3059619,3208985,3353676,3498030,3612704,3710467,3795782,3876735,3957601,4031083,4094159,4154734,4210917,4265402,4313995,4360233,4406448,4450897,4494764,4538239,4575212,4608322,4640066,4670921,4701101,4727533,4752863,4775180,4795935,4816074,4829217,4841591,4851343,4859817,4866847,4873479,4879778,4884260,4887910,4890549,4892366,4893031],"totalNumberOfNucleotidesInDnaStrings":4893031,"totalNumberOfNsInDnaStrings":2,"averageNumberOfNucleotidesInDnaStrings":92321,"smallestNumberOfNucleotidesInDnaStrings":665,"biggestNumberOfNucleotidesInDnaStrings":716435,"gcContent":"51.9"}},"analysis":{"st":"2","mlst":"1_1_2_1_1_1_5","core":{"size":3911,"percentMatched":99.8,"percentAssemblyMatched":73.4},"resistanceProfile":{"AMP":{"name":"AMP","state":"RESISTANT","mechanisms":["TEM-1"]},"CEP":{"name":"CEP","state":"UNKNOWN","mechanisms":[]},"CHL":{"name":"CHL","state":"RESISTANT","mechanisms":["catA1"]},"CIP":{"name":"CIP","state":"UNKNOWN","mechanisms":[]},"NAL":{"name":"NAL","state":"UNKNOWN","mechanisms":[]},"SMX":{"name":"SMX","state":"RESISTANT","mechanisms":["sulI"]},"TMP":{"name":"TMP","state":"RESISTANT","mechanisms":["dfrA1"]},"SXT":{"name":"SXT","state":"RESISTANT","mechanisms":["sulI-dfrA1"]},"TCY":{"name":"TCY","state":"RESISTANT","mechanisms":["tetA","tetR"]},"AZM":{"name":"AZM","state":"UNKNOWN","mechanisms":[]},"SIL":{"name":"SIL","state":"UNKNOWN","mechanisms":[]}}}},"MWZmZmU2NzMtZjRiMi00Nj":{"populationSubtype":"90370_404Ty_3.1","metadata":{"assemblyId":"MWZmZmU2NzMtZjRiMi00Nj","speciesId":"90370","assemblyName":"10593_2_46_GuiE99-6478_1999","date":{"year":"1999"},"position":{"latitude":9.945587,"longitude":-9.696645},"pmid":"25961941","userDefined":{"country":"Guinea","accuracy":"1","genotype":"3.1.0","strain":"E99-6478","source":"Not provided","accession":"ERR360659","study accession":"ERP001718"},"metrics":{"totalNumberOfContigs":46,"assemblyN50Data":{"sequenceNumber":8,"sum":2370686,"sequenceLength":205955},"contigN50":205955,"sumsOfNucleotidesInDnaStrings":[466582,859341,1155220,1450623,1700583,1945841,2164731,2370686,2575011,2760897,2934149,3106066,3264952,3414285,3559049,3672543,3770517,3862664,3943873,4024734,4098202,4162899,4225945,4286619,4342843,4396816,4440703,4484112,4517236,4549138,4580051,4606414,4632702,4655047,4667418,4679175,4687759,4694983,4702059,4708683,4713426,4717760,4721551,4724245,4725105,4725760],"totalNumberOfNucleotidesInDnaStrings":4725760,"totalNumberOfNsInDnaStrings":3,"averageNumberOfNucleotidesInDnaStrings":102733,"smallestNumberOfNucleotidesInDnaStrings":655,"biggestNumberOfNucleotidesInDnaStrings":466582,"gcContent":"52.1"}},"analysis":{"st":"2","mlst":"1_1_2_1_1_1_5","core":{"size":3915,"percentMatched":99.9,"percentAssemblyMatched":76.2},"resistanceProfile":{"AMP":{"name":"AMP","state":"UNKNOWN","mechanisms":[]},"CEP":{"name":"CEP","state":"UNKNOWN","mechanisms":[]},"CHL":{"name":"CHL","state":"UNKNOWN","mechanisms":[]},"CIP":{"name":"CIP","state":"UNKNOWN","mechanisms":[]},"NAL":{"name":"NAL","state":"UNKNOWN","mechanisms":[]},"SMX":{"name":"SMX","state":"UNKNOWN","mechanisms":[]},"TMP":{"name":"TMP","state":"UNKNOWN","mechanisms":[]},"SXT":{"name":"SXT","state":"UNKNOWN","mechanisms":[]},"TCY":{"name":"TCY","state":"UNKNOWN","mechanisms":[]},"AZM":{"name":"AZM","state":"UNKNOWN","mechanisms":[]},"SIL":{"name":"SIL","state":"UNKNOWN","mechanisms":[]}}}},"MTkyNjNkYWYtMzFjMC00Yj":{"populationSubtype":"90370_404Ty_3.1","metadata":{"assemblyId":"MTkyNjNkYWYtMzFjMC00Yj","speciesId":"90370","assemblyName":"10592_2_65_Camer09-5224_2009","date":{"year":"2009"},"position":{"latitude":7.369722,"longitude":12.354722},"pmid":"25961941","userDefined":{"country":"Cameroon","accuracy":"1","genotype":"3.1.1","strain":"09-5224","source":"Not provided","accession":"ERR360513","study accession":"ERP001718"},"metrics":{"totalNumberOfContigs":52,"assemblyN50Data":{"sequenceNumber":9,"sum":2508964,"sequenceLength":204262},"contigN50":204262,"sumsOfNucleotidesInDnaStrings":[466584,860090,1157862,1410503,1660456,1880652,2098723,2304702,2508964,2694346,2870866,3029337,3184339,3338027,3487374,3632123,3767643,3885316,3983120,4063991,4129071,4192126,4252767,4308975,4362492,4411185,4457470,4503484,4547343,4590879,4633709,4666825,4698738,4729669,4760157,4786449,4808755,4828889,4845944,4858314,4868060,4876651,4883738,4890372,4896671,4901150,4903841,4906092,4907914,4909594,4910257,4910623],"totalNumberOfNucleotidesInDnaStrings":4910623,"totalNumberOfNsInDnaStrings":22,"averageNumberOfNucleotidesInDnaStrings":94435,"smallestNumberOfNucleotidesInDnaStrings":366,"biggestNumberOfNucleotidesInDnaStrings":466584,"gcContent":"51.9"}},"analysis":{"st":"2","mlst":"1_1_2_1_1_1_5","core":{"size":3912,"percentMatched":99.9,"percentAssemblyMatched":73.2},"resistanceProfile":{"AMP":{"name":"AMP","state":"RESISTANT","mechanisms":["TEM-1"]},"CEP":{"name":"CEP","state":"UNKNOWN","mechanisms":[]},"CHL":{"name":"CHL","state":"RESISTANT","mechanisms":["catA1"]},"CIP":{"name":"CIP","state":"UNKNOWN","mechanisms":[]},"NAL":{"name":"NAL","state":"UNKNOWN","mechanisms":[]},"SMX":{"name":"SMX","state":"RESISTANT","mechanisms":["sulI"]},"TMP":{"name":"TMP","state":"RESISTANT","mechanisms":["dfrA1"]},"SXT":{"name":"SXT","state":"RESISTANT","mechanisms":["sulI-dfrA1"]},"TCY":{"name":"TCY","state":"RESISTANT","mechanisms":["tetR","tetA"]},"AZM":{"name":"AZM","state":"UNKNOWN","mechanisms":[]},"SIL":{"name":"SIL","state":"UNKNOWN","mechanisms":[]}}}},"MWNkMjRhZWYtYzI2OS00ND":{"populationSubtype":"90370_404Ty_3.1","metadata":{"assemblyId":"MWNkMjRhZWYtYzI2OS00ND","speciesId":"90370","assemblyName":"10071_3_86_IndoA128_2008","date":{"year":"2008"},"position":{"latitude":-0.789275,"longitude":113.921327},"pmid":"25961941","userDefined":{"country":"Indonesia","accuracy":"1","genotype":"3.1.2","strain":"A128","source":"Blood","accession":"ERR338062","study accession":"ERP001718"},"metrics":{"totalNumberOfContigs":49,"assemblyN50Data":{"sequenceNumber":8,"sum":2428240,"sequenceLength":173385},"contigN50":173385,"sumsOfNucleotidesInDnaStrings":[466401,923270,1322409,1578703,1828787,2048757,2254855,2428240,2601483,2773419,2934475,3088193,3237576,3383938,3528707,3646931,3744917,3837140,3918152,3995455,4061253,4124215,4184855,4241098,4295602,4344211,4388109,4430978,4470074,4503247,4535084,4566041,4592997,4615342,4635556,4647939,4656530,4663642,4670318,4674809,4677973,4680706,4681381,4681764,4682143,4682507,4682867,4683224,4683539],"totalNumberOfNucleotidesInDnaStrings":4683539,"totalNumberOfNsInDnaStrings":3,"averageNumberOfNucleotidesInDnaStrings":95582,"smallestNumberOfNucleotidesInDnaStrings":315,"biggestNumberOfNucleotidesInDnaStrings":466401,"gcContent":"52.1"}},"analysis":{"st":"2","mlst":"1_1_2_1_1_1_5","core":{"size":3872,"percentMatched":98.9,"percentAssemblyMatched":76.3},"resistanceProfile":{"AMP":{"name":"AMP","state":"UNKNOWN","mechanisms":[]},"CEP":{"name":"CEP","state":"UNKNOWN","mechanisms":[]},"CHL":{"name":"CHL","state":"UNKNOWN","mechanisms":[]},"CIP":{"name":"CIP","state":"UNKNOWN","mechanisms":[]},"NAL":{"name":"NAL","state":"UNKNOWN","mechanisms":[]},"SMX":{"name":"SMX","state":"UNKNOWN","mechanisms":[]},"TMP":{"name":"TMP","state":"UNKNOWN","mechanisms":[]},"SXT":{"name":"SXT","state":"UNKNOWN","mechanisms":[]},"TCY":{"name":"TCY","state":"UNKNOWN","mechanisms":[]},"AZM":{"name":"AZM","state":"UNKNOWN","mechanisms":[]},"SIL":{"name":"SIL","state":"UNKNOWN","mechanisms":[]}}}},"NjVmNmMzZWMtZDAyMi00Zm":{"populationSubtype":"90370_404Ty_3.1","metadata":{"assemblyId":"NjVmNmMzZWMtZDAyMi00Zm","speciesId":"90370","assemblyName":"10349_1_78_Ind12959_2012","date":{"year":"2012"},"position":{"latitude":20.593684,"longitude":78.96288},"pmid":"25961941","userDefined":{"country":"India","accuracy":"1","genotype":"3.1.2","strain":"ERL12959","source":"Blood","accession":"ERR343326","study accession":"ERP001718"},"metrics":{"totalNumberOfContigs":58,"assemblyN50Data":{"sequenceNumber":10,"sum":2508648,"sequenceLength":185553},"contigN50":185553,"sumsOfNucleotidesInDnaStrings":[466736,729611,979994,1229761,1475156,1694124,1912198,2118395,2323095,2508648,2681917,2853938,3017039,3170952,3320482,3465203,3600909,3730826,3844350,3942319,4023152,4086242,4146861,4203001,4257112,4305750,4349534,4393127,4436534,4479385,4512452,4544244,4575155,4601439,4626187,4648471,4668597,4680933,4692140,4700664,4707888,4714888,4721530,4727229,4731559,4735346,4738735,4741869,4744857,4747544,4749280,4750626,4751888,4752748,4753400,4754007,4754371,4754715],"totalNumberOfNucleotidesInDnaStrings":4754715,"totalNumberOfNsInDnaStrings":21366,"averageNumberOfNucleotidesInDnaStrings":81977,"smallestNumberOfNucleotidesInDnaStrings":344,"biggestNumberOfNucleotidesInDnaStrings":466736,"gcContent":"52.0"}},"analysis":{"st":"2","mlst":"1_1_2_1_1_1_5","core":{"size":3881,"percentMatched":99.1,"percentAssemblyMatched":74.7},"resistanceProfile":{"AMP":{"name":"AMP","state":"UNKNOWN","mechanisms":[]},"CEP":{"name":"CEP","state":"UNKNOWN","mechanisms":[]},"CHL":{"name":"CHL","state":"UNKNOWN","mechanisms":[]},"CIP":{"name":"CIP","state":"UNKNOWN","mechanisms":[]},"NAL":{"name":"NAL","state":"UNKNOWN","mechanisms":[]},"SMX":{"name":"SMX","state":"UNKNOWN","mechanisms":[]},"TMP":{"name":"TMP","state":"UNKNOWN","mechanisms":[]},"SXT":{"name":"SXT","state":"UNKNOWN","mechanisms":[]},"TCY":{"name":"TCY","state":"UNKNOWN","mechanisms":[]},"AZM":{"name":"AZM","state":"UNKNOWN","mechanisms":[]},"SIL":{"name":"SIL","state":"UNKNOWN","mechanisms":[]}}}},"M2RmODQ4NDktOGUyOS00YT":{"populationSubtype":"90370_404Ty_3.1","metadata":{"assemblyId":"M2RmODQ4NDktOGUyOS00YT","speciesId":"90370","assemblyName":"10593_2_28_Ben09-8774_2009","date":{"year":"2009"},"position":{"latitude":9.30769,"longitude":2.315834},"pmid":"25961941","userDefined":{"country":"Benin","accuracy":"1","genotype":"3.1.1","strain":"09-8774","source":"Not provided","accession":"ERR360641","study accession":"ERP001718"},"metrics":{"totalNumberOfContigs":52,"assemblyN50Data":{"sequenceNumber":9,"sum":2528629,"sequenceLength":202187},"contigN50":202187,"sumsOfNucleotidesInDnaStrings":[672832,936417,1189652,1439239,1684508,1904151,2122176,2326442,2528629,2713966,2887217,3045639,3200670,3350033,3494714,3624716,3738218,3835976,3916929,3997793,4062880,4125951,4186590,4245435,4301655,4355039,4403624,4449873,4495863,4539662,4583116,4625950,4659071,4690983,4721900,4748196,4770989,4793281,4813499,4830527,4842834,4852584,4861130,4868296,4875332,4881975,4888274,4892757,4896556,4899197,4901056,4901719],"totalNumberOfNucleotidesInDnaStrings":4901719,"totalNumberOfNsInDnaStrings":2,"averageNumberOfNucleotidesInDnaStrings":94263,"smallestNumberOfNucleotidesInDnaStrings":663,"biggestNumberOfNucleotidesInDnaStrings":672832,"gcContent":"51.9"}},"analysis":{"st":"2","mlst":"1_1_2_1_1_1_5","core":{"size":3912,"percentMatched":99.9,"percentAssemblyMatched":73.3},"resistanceProfile":{"AMP":{"name":"AMP","state":"RESISTANT","mechanisms":["TEM-1"]},"CEP":{"name":"CEP","state":"UNKNOWN","mechanisms":[]},"CHL":{"name":"CHL","state":"RESISTANT","mechanisms":["catA1"]},"CIP":{"name":"CIP","state":"UNKNOWN","mechanisms":[]},"NAL":{"name":"NAL","state":"UNKNOWN","mechanisms":[]},"SMX":{"name":"SMX","state":"RESISTANT","mechanisms":["sulI"]},"TMP":{"name":"TMP","state":"RESISTANT","mechanisms":["dfrA1"]},"SXT":{"name":"SXT","state":"RESISTANT","mechanisms":["sulI-dfrA1"]},"TCY":{"name":"TCY","state":"UNKNOWN","mechanisms":[]},"AZM":{"name":"AZM","state":"UNKNOWN","mechanisms":[]},"SIL":{"name":"SIL","state":"UNKNOWN","mechanisms":[]}}}},"Mzc0NDljZmUtOWZkNy00Mj":{"populationSubtype":"90370_404Ty_3.1","metadata":{"assemblyId":"Mzc0NDljZmUtOWZkNy00Mj","speciesId":"90370","assemblyName":"M593","date":{"year":"1937"},"position":{"latitude":null,"longitude":null},"pmid":"26411565","userDefined":{"country":"Unknown","accuracy":"","genotype":"3.1.2","strain":"B 5105","source":"Blood culture","accession":"ERS203117","study accession":"ERP001784 "},"metrics":{"totalNumberOfContigs":50,"assemblyN50Data":{"sequenceNumber":10,"sum":2533256,"sequenceLength":204345},"contigN50":204345,"sumsOfNucleotidesInDnaStrings":[466398,729976,980315,1229913,1474865,1695002,1912871,2122850,2328911,2533256,2718670,2893716,3065678,3228743,3382479,3531854,3661667,3775182,3873141,3965537,4052265,4133151,4196222,4256904,4313134,4364267,4413176,4457063,4499938,4538203,4571347,4603267,4634213,4660533,4682865,4703083,4715455,4724046,4731147,4737823,4744122,4748635,4752450,4755839,4758973,4761819,4764594,4765268,4765648,4765995],"totalNumberOfNucleotidesInDnaStrings":4765995,"totalNumberOfNsInDnaStrings":0,"averageNumberOfNucleotidesInDnaStrings":95319,"smallestNumberOfNucleotidesInDnaStrings":347,"biggestNumberOfNucleotidesInDnaStrings":466398,"gcContent":"52.0"}},"analysis":{"st":"2","mlst":"1_1_2_1_1_1_5","core":{"size":3917,"percentMatched":100,"percentAssemblyMatched":75.6},"resistanceProfile":{"AMP":{"name":"AMP","state":"UNKNOWN","mechanisms":[]},"CEP":{"name":"CEP","state":"UNKNOWN","mechanisms":[]},"CHL":{"name":"CHL","state":"UNKNOWN","mechanisms":[]},"CIP":{"name":"CIP","state":"UNKNOWN","mechanisms":[]},"NAL":{"name":"NAL","state":"UNKNOWN","mechanisms":[]},"SMX":{"name":"SMX","state":"UNKNOWN","mechanisms":[]},"TMP":{"name":"TMP","state":"UNKNOWN","mechanisms":[]},"SXT":{"name":"SXT","state":"UNKNOWN","mechanisms":[]},"TCY":{"name":"TCY","state":"UNKNOWN","mechanisms":[]},"AZM":{"name":"AZM","state":"UNKNOWN","mechanisms":[]},"SIL":{"name":"SIL","state":"UNKNOWN","mechanisms":[]}}}},"OWI5Mzc4NTEtM2ZmYy00Mz":{"populationSubtype":"90370_404Ty_3.1","metadata":{"assemblyId":"OWI5Mzc4NTEtM2ZmYy00Mz","speciesId":"90370","assemblyName":"10593_2_81_TunE00-7666_2000","date":{"year":"2000"},"position":{"latitude":33.886917,"longitude":9.537499},"pmid":"25961941","userDefined":{"country":"Tunisia","accuracy":"1","genotype":"3.1.0","strain":"E00-7666","source":"Not provided","accession":"ERR360694","study accession":"ERP001718"},"metrics":{"totalNumberOfContigs":42,"assemblyN50Data":{"sequenceNumber":7,"sum":2409037,"sequenceLength":206094},"contigN50":206094,"sumsOfNucleotidesInDnaStrings":[716430,1110161,1443727,1739692,1985182,2202943,2409037,2613373,2786729,2958601,3121624,3279141,3428436,3574374,3719199,3854831,3952845,4045043,4125908,4190618,4253757,4314422,4370651,4415718,4459599,4498661,4531764,4563718,4594658,4620956,4643268,4663418,4675772,4686382,4695001,4702090,4708736,4715035,4719514,4722557,4725281,4725647],"totalNumberOfNucleotidesInDnaStrings":4725647,"totalNumberOfNsInDnaStrings":1,"averageNumberOfNucleotidesInDnaStrings":112515,"smallestNumberOfNucleotidesInDnaStrings":366,"biggestNumberOfNucleotidesInDnaStrings":716430,"gcContent":"52.1"}},"analysis":{"st":"2","mlst":"1_1_2_1_1_1_5","core":{"size":3917,"percentMatched":100,"percentAssemblyMatched":76.3},"resistanceProfile":{"AMP":{"name":"AMP","state":"UNKNOWN","mechanisms":[]},"CEP":{"name":"CEP","state":"UNKNOWN","mechanisms":[]},"CHL":{"name":"CHL","state":"UNKNOWN","mechanisms":[]},"CIP":{"name":"CIP","state":"UNKNOWN","mechanisms":[]},"NAL":{"name":"NAL","state":"UNKNOWN","mechanisms":[]},"SMX":{"name":"SMX","state":"UNKNOWN","mechanisms":[]},"TMP":{"name":"TMP","state":"UNKNOWN","mechanisms":[]},"SXT":{"name":"SXT","state":"UNKNOWN","mechanisms":[]},"TCY":{"name":"TCY","state":"UNKNOWN","mechanisms":[]},"AZM":{"name":"AZM","state":"UNKNOWN","mechanisms":[]},"SIL":{"name":"SIL","state":"UNKNOWN","mechanisms":[]}}}},"ZmEyM2IwNmItMzM2OS00N2":{"populationSubtype":"90370_404Ty_3.1","metadata":{"assemblyId":"ZmEyM2IwNmItMzM2OS00N2","speciesId":"90370","assemblyName":"9472_4_78_S.Typhi_Quailes_1958","date":{"year":"1958"},"position":{"latitude":37.09024,"longitude":-95.712891},"pmid":"25961941","userDefined":{"country":"United States of America","accuracy":"1","genotype":"3.1.0","strain":"Quailes","source":"Gallbladder fluid","accession":"ERR294858","study accession":"ERP001718"},"metrics":{"totalNumberOfContigs":42,"assemblyN50Data":{"sequenceNumber":8,"sum":2367342,"sequenceLength":186909},"contigN50":186909,"sumsOfNucleotidesInDnaStrings":[480140,946536,1262924,1513114,1758210,1976078,2180433,2367342,2540732,2712776,2875841,3029581,3183082,3332464,3477233,3618441,3753992,3867528,3972158,4064396,4129624,4194349,4257432,4318550,4369587,4415522,4459420,4502818,4539644,4573729,4606891,4637848,4660193,4680415,4692798,4701389,4709112,4716224,4722923,4727068,4730912,4733645],"totalNumberOfNucleotidesInDnaStrings":4733645,"totalNumberOfNsInDnaStrings":36,"averageNumberOfNucleotidesInDnaStrings":112705,"smallestNumberOfNucleotidesInDnaStrings":2733,"biggestNumberOfNucleotidesInDnaStrings":480140,"gcContent":"52.1"}},"analysis":{"st":"2","mlst":"1_1_2_1_1_1_5","core":{"size":3917,"percentMatched":100,"percentAssemblyMatched":76.1},"resistanceProfile":{"AMP":{"name":"AMP","state":"UNKNOWN","mechanisms":[]},"CEP":{"name":"CEP","state":"UNKNOWN","mechanisms":[]},"CHL":{"name":"CHL","state":"UNKNOWN","mechanisms":[]},"CIP":{"name":"CIP","state":"UNKNOWN","mechanisms":[]},"NAL":{"name":"NAL","state":"UNKNOWN","mechanisms":[]},"SMX":{"name":"SMX","state":"UNKNOWN","mechanisms":[]},"TMP":{"name":"TMP","state":"UNKNOWN","mechanisms":[]},"SXT":{"name":"SXT","state":"UNKNOWN","mechanisms":[]},"TCY":{"name":"TCY","state":"UNKNOWN","mechanisms":[]},"AZM":{"name":"AZM","state":"UNKNOWN","mechanisms":[]},"SIL":{"name":"SIL","state":"UNKNOWN","mechanisms":[]}}}},"NzhjMjc2YTAtYWVjZS00NG":{"populationSubtype":"90370_404Ty_3.1","metadata":{"assemblyId":"NzhjMjc2YTAtYWVjZS00NG","speciesId":"90370","assemblyName":"9953_5_20_IndoA287_2008","date":{"year":"2008"},"position":{"latitude":-0.789275,"longitude":113.921327},"pmid":"25961941","userDefined":{"country":"Indonesia","accuracy":"1","genotype":"3.1.2","strain":"A287","source":"Blood","accession":"ERR326616","study accession":"ERP001718"},"metrics":{"totalNumberOfContigs":51,"assemblyN50Data":{"sequenceNumber":9,"sum":2392439,"sequenceLength":190332},"contigN50":190332,"sumsOfNucleotidesInDnaStrings":[462171,855101,1105286,1354885,1573840,1791709,1997795,2202107,2392439,2565644,2737607,2900669,3062420,3215999,3365382,3510146,3623644,3721630,3802696,3883708,3948439,4011522,4072162,4128405,4182987,4237504,4290495,4339200,4383098,4426733,4469615,4502777,4535034,4565991,4592539,4616444,4638789,4659005,4671388,4679979,4687091,4694167,4700466,4705596,4710102,4713236,4715969,4718124,4720243,4722084,4722776],"totalNumberOfNucleotidesInDnaStrings":4722776,"totalNumberOfNsInDnaStrings":32,"averageNumberOfNucleotidesInDnaStrings":92603,"smallestNumberOfNucleotidesInDnaStrings":692,"biggestNumberOfNucleotidesInDnaStrings":462171,"gcContent":"52.1"}},"analysis":{"st":"2","mlst":"1_1_2_1_1_1_5","core":{"size":3914,"percentMatched":99.9,"percentAssemblyMatched":76.2},"resistanceProfile":{"AMP":{"name":"AMP","state":"UNKNOWN","mechanisms":[]},"CEP":{"name":"CEP","state":"UNKNOWN","mechanisms":[]},"CHL":{"name":"CHL","state":"UNKNOWN","mechanisms":[]},"CIP":{"name":"CIP","state":"UNKNOWN","mechanisms":[]},"NAL":{"name":"NAL","state":"UNKNOWN","mechanisms":[]},"SMX":{"name":"SMX","state":"UNKNOWN","mechanisms":[]},"TMP":{"name":"TMP","state":"UNKNOWN","mechanisms":[]},"SXT":{"name":"SXT","state":"UNKNOWN","mechanisms":[]},"TCY":{"name":"TCY","state":"UNKNOWN","mechanisms":[]},"AZM":{"name":"AZM","state":"UNKNOWN","mechanisms":[]},"SIL":{"name":"SIL","state":"UNKNOWN","mechanisms":[]}}}},"ODRkMjg4ZTUtNTFhMi00MD":{"populationSubtype":"90370_404Ty_3.1","metadata":{"assemblyId":"ODRkMjg4ZTUtNTFhMi00MD","speciesId":"90370","assemblyName":"10071_3_89_IndoA132_2011","date":{"year":"2011"},"position":{"latitude":-0.789275,"longitude":113.921327},"pmid":"25961941","userDefined":{"country":"Indonesia","accuracy":"1","genotype":"3.1.2","strain":"A132","source":"Blood","accession":"ERR338065","study accession":"ERP001718"},"metrics":{"totalNumberOfContigs":44,"assemblyN50Data":{"sequenceNumber":9,"sum":2531018,"sequenceLength":204291},"contigN50":204291,"sumsOfNucleotidesInDnaStrings":[466297,859054,1146221,1398933,1651567,1901715,2120671,2326727,2531018,2716443,2889819,3044844,3198564,3347933,3492688,3632391,3749428,3863143,3961092,4046957,4128061,4193548,4254165,4310394,4359026,4402917,4446248,4488955,4526139,4559312,4590246,4617342,4638168,4655230,4671620,4683996,4692557,4699662,4706333,4712633,4717003,4720821,4723547,4724221],"totalNumberOfNucleotidesInDnaStrings":4724221,"totalNumberOfNsInDnaStrings":8,"averageNumberOfNucleotidesInDnaStrings":107368,"smallestNumberOfNucleotidesInDnaStrings":674,"biggestNumberOfNucleotidesInDnaStrings":466297,"gcContent":"52.1"}},"analysis":{"st":"2","mlst":"1_1_2_1_1_1_5","core":{"size":3914,"percentMatched":99.9,"percentAssemblyMatched":76.2},"resistanceProfile":{"AMP":{"name":"AMP","state":"UNKNOWN","mechanisms":[]},"CEP":{"name":"CEP","state":"UNKNOWN","mechanisms":[]},"CHL":{"name":"CHL","state":"UNKNOWN","mechanisms":[]},"CIP":{"name":"CIP","state":"UNKNOWN","mechanisms":[]},"NAL":{"name":"NAL","state":"UNKNOWN","mechanisms":[]},"SMX":{"name":"SMX","state":"UNKNOWN","mechanisms":[]},"TMP":{"name":"TMP","state":"UNKNOWN","mechanisms":[]},"SXT":{"name":"SXT","state":"UNKNOWN","mechanisms":[]},"TCY":{"name":"TCY","state":"UNKNOWN","mechanisms":[]},"AZM":{"name":"AZM","state":"UNKNOWN","mechanisms":[]},"SIL":{"name":"SIL","state":"UNKNOWN","mechanisms":[]}}}}},"tree":"(((((((((ODA0ZmUzYTgtYTE0OS00MG:0.9916666667,MTE3N2Q4ZGEtOWZiOC00Mj:4.008333333):0.03878348214,((MWFlNTMxZmUtNjRlNC00Yz:10.03716216,N2FmNWZmZWItNGRkMC00Nz:4.962837838):0.5491727941,(YzhiNGNjZWUtZGEzOS00NT:3.00843254,YThhM2Y0ZTAtOGFjMC00YW:2.99156746):4.700827206):0.3362165179):0.2173897879,((((ZWUxNGY5NDctN2JkYy00ZW:-0.7921195652,NTMyODg3NTEtZjNhYy00YT:4.792119565):1.583533654,(YThlNDBlNzgtODU2Ny00YW:2.487288136,ZWVlZTY5M2ItNDA1Mi00N2:2.512711864):3.166466346):0.2962646484,(((MjYwMTM3MTktNWU2Zi00OG:-0.01428571429,ZGI1MWE1NDctNjdmOC00YT:0.01428571429):0.05072463768,M2EwODBiODktMzk1OC00Mm:0.9492753623):0.06801470588,NjE3NjRlNWMtZThhMi00Yz:-0.06801470588):6.828735352):0.2696940104,(Y2M2OGNkOGMtNjQ5ZS00Mz:3.052419355,MGU0NzdiMTYtNjgxMS00Mz:1.947580645):4.41780599):0.7435477121):0.06872558594,((((((((NDk5Y2EwNzEtYjJlOC00OG:7.505434783,OTE0YTNjNTctNmMxMy00Yz:11.49456522):0.4229403409,(NjE0YjMyNjQtMzBkZi00MT:0.5953125,ZDRiMzA4MmEtYzg3MS00OW:1.4046875):4.327059659):0.1275390625,OTEzMzVkNjEtZjc2My00NT:4.997460937):0.0830078125,((ZTVkODQxYTctNWQ5Zi00NW:2.051785714,MGRkNTg2YWQtMjUxZi00OD:4.948214286):0.1144301471,(((NWI5YjU4ZDItNzMzMi00Mj:4.786885246,ZTIxYTllYjUtZGE5Ny00Yj:2.213114754):1.209090909,Y2FmZTM2ZmQtMDA1My00Zm:0.2909090909):0.2430555556,MTRlZWY1MTEtZTJmOS00Yj:7.256944444):2.635569853):0.9638671875):0.08481445312,((NzA5OWJjMTctMGJjYS00Nz:2.5546875,YTg1ZTIwODMtYmNkMS00Y2:0.4453125):1.709429825,NTczMjllMWYtNTI4Yi00MD:7.290570175):3.860498047):0.02255249023,((MGVjZWY1MjMtZjBhNi00MW:17.453125,ZjUwN2RiZTUtOTMyYi00Nz:8.546875):0.3532104492,(((ZTQ1MmFkYWYtODVjNC00MD:9.085286458,MmQ1NjZjMTItZDQxYS00ZT:11.91471354):0.07280585106,YWQyMjAzNDAtNDc2NS00ZT:1.927194149):1.515718006,MjY2YWNkN2MtNTQ1Ni00Nj:4.484281994):1.521789551):0.3387756348):0.08557128906,((((YTZlNzk4ZGMtZDI2OS00ND:10.48320896,ODIwMmU1YTgtZjkwZC00ZT:7.516791045):4.641601562,((((MjVmMTUxYTctZDNlMC00Zm:1.011513158,MmE2ODBkZTQtYjcwOS00YW:-0.01151315789):0.0275,YTU4NjQ2NWYtMWRiOS00MT:-0.0275):0.04096283784,M2U5YTcxNzQtOTFkMi00NT:-0.04096283784):0.4342893836,(((ODc1MDBhNDMtMWI5OS00YW:6.424050633,MmMwNWI4ZGMtYzg5Yy00Mj:0.5759493671):0.4615384615,MzFlMWY4ZjItMGViMi00Yj:0.03846153846):0.1769480519,M2NkZGFiMWUtMzMzMC00Nj:-0.1769480519):0.5657106164):9.795898438):1.170898438,NGIzMWE3MmMtNGRkMi00NT:3.610351562):0.3407796224,(ZWVkYmJiYTMtMDhlYy00NT:1.38556338,OWE3OGQ5OWEtMGEwMi00ZT:0.6144366197):8.409220378):0.3343505859):0.02691650391,(((Y2Y5ODU5MmQtNjNjMC00Mz:7.932765152,ZjQ1ZDE1MDAtOWY1OS00Yz:12.06723485):0.3659539474,(ZGQ1YmQ3YjUtOTJjMC00OT:5.298108553,MmYxOTY0ZDEtMzkwZC00Nz:0.7018914474):0.6340460526):0.3907752404,((((ZTQ3ZGU1ZjUtODI3ZC00YT:-0.0625,MGM2MjA3OGQtZDI0Ny00NT:0.0625):0.53515625,ZGVhY2VjNTItY2RlMC00Yz:3.46484375):0.6761363636,(Y2NmMjdhZTQtNDNlYS00OD:2.084821429,NWM3MWQ5OGEtOTU1MC00Nj:5.915178571):3.323863636):0.138671875,(((M2RiMjAzYzctYmM2Ny00Nz:7.983333333,NTVhOGU4ZGUtOTQ4Ny00Zm:0.01666666667):0.04418103448,NDMzNGFjNzktMzk3ZS00YT:0.9558189655):0.03962053571,YThmZjFlOWYtZjJhYS00Zj:-0.03962053571):0.423828125):0.4060997596):0.280456543):0.02606201172):0.07263183594,((((MmJkYzY3NjItNDMxMy00Yj:-0.025,OTQxZTI1NzAtMDRkNy00Zj:1.025):1.05141129,YTJkN2ZjYWYtYTliNy00ND:5.94858871):0.1704282407,(((Y2E3YzA2MmQtMzlkMC00Zj:1.396551724,MDMwYjE3MWItZmZjYS00MW:1.603448276):0.7806372549,YWVjNTBkMGEtOWU4Yy00YW:0.2193627451):0.19375,((ZjU2NTYwZDEtNzcyOS00ZW:0,YWFlMzU1MDUtMDU0MC00Yz:0):0.07331730769,NWRmMjNiYWEtYTUzMi00YT:1.926682692):0.30625):2.829571759):0.124375,(OWE0YTIwYmYtYTNkNS00OT:0.02083333333,MWU4OWM3ZTEtNGE2ZC00ZT:5.979166667):0.438125):0.7765909831):0.1042683919,(OGY4NmNiYjAtNDNkNC00Yj:3.43597561,MzliMTk5MzItN2JkMC00YT:3.56402439):1.56382921):0.6549207899,(((YTEyMjEwNjUtYTQxOC00Ym:0.02083333333,NmJkZDcxYzgtNGRhMC00ZT:0.9791666667):3.408617424,MmE5Y2Y1OWMtYzMzOC00OG:5.591382576):0.2063701923,(((YjdmYmI5MTMtZWI2MS00MT:0.6325301205,NmU4YzFhZTMtM2NkYi00MT:-0.6325301205):0.3395061728,N2EyMWJiMGYtYTllOC00MG:0.6604938272):0.1015625,(YjVlNTAwODQtZmE2NS00NW:1,NWQyMzY3NjEtZmQxZC00YW:1):0.1484375):11.35612981):4.894906851):2.698843149,ZjcyMjUzMGUtODQ3MS00Yz:6.71875):79.71371624,90370_404Ty_3.1:102.5675338);"}
